Code,Name,Type,DrainArea,SubBasin,City,State,Responsib,Operator,Latitude,Longitude,Altitude,River,StartDate,EndDate,Status,Origem,IsStudy
10075000,TAMISHIYACU,1,8985.0,10,PERU,PERU,SENAMHI-PERU,SENAMHI-PERU,-4.0036,-73.1611,105.0,RIO SOLIMÕES-AMAZONAS,1983-10-01,,Ativo,RHN,0
10086700,MAZAN,1,,10,PERU,PERU,SENAMHI-PERU,SENAMHI-PERU,-3.4881,-73.0819,,RIO NAPO,2018-08-01,,Ativo,RHN,0
10100000,TABATINGA,1,874000.0,10,TABATINGA,AMAZONAS,ANA,SGB-CPRM,-4.2347,-69.9447,78.0,RIO SOLIMÕES-AMAZONAS,1982-07-01,,Ativo,RHN,0
10500000,ESTIRÃO DO REPOUSO,1,61400.0,10,ATALAIA DO NORTE,AMAZONAS,ANA,ÁGUA E SOLO,-4.3408,-70.9056,89.0,RIO JAVARI,1980-09-01,,Ativo,RHN,0
10910000,LADÁRIO - JUSANTE,1,36900.0,10,ATALAIA DO NORTE,AMAZONAS,ANA,ÁGUA E SOLO,-4.5836,-70.2644,91.0,RIO ITACUAI,1997-06-01,,Ativo,RHN,0
11400000,SÃO PAULO DE OLIVENÇA,1,1010000.0,11,SÃO PAULO DE OLIVEN,AMAZONAS,ANA,ÁGUA E SOLO,-3.4569,-68.9119,71.0,RIO SOLIMÕES-AMAZONAS,1973-07-01,,Ativo,RHN,0
11500000,SANTO ANTÔNIO DO IÇÁ,1,1130000.0,11,SANTO ANTÔNIO DO IÇ,AMAZONAS,ANA,ÁGUA E SOLO,-3.1017,-67.9356,53.0,RIO SOLIMÕES-AMAZONAS,1973-07-01,,Ativo,RHN,0
12100000,COLOCAÇÃO CAXIAS NOVO,1,20300.0,12,JUTAÍ,AMAZONAS,ANA,ÁGUA E SOLO,-4.6661,-68.1483,,RIO JUTAÍ,1982-07-01,,Ativo,RHN,0
12240000,PORTO SEGURO,1,64400.0,12,JUTAÍ,AMAZONAS,ANA,ÁGUA E SOLO,-3.3372,-67.4917,,RIO JUTAÍ,1997-05-01,,Ativo,RHN,0
12351000,FONTE BOA,1,1220000.0,12,FONTE BOA,AMAZONAS,ANA,ÁGUA E SOLO,-2.4914,-66.0617,,RIO SOLIMÕES-AMAZONAS,1977-11-01,,Ativo,RHN,0
12370000,THAUMATURGO,1,16100.0,12,MARECHAL THAUMATURG,ACRE,ANA,ÁGUA E SOLO,-8.9458,-72.7847,,RIO JURUÁ,1981-04-01,,Ativo,RHN,0
12390000,PORTO WALTER,1,22200.0,12,PORTO WALTER,ACRE,ANA,ÁGUA E SOLO,-8.2672,-72.7411,,RIO JURUÁ,1997-03-01,,Ativo,RHN,0
12500000,CRUZEIRO DO SUL,1,37800.0,12,CRUZEIRO DO SUL,ACRE,ANA,ÁGUA E SOLO,-7.6333,-72.6603,,RIO JURUÁ,1967-06-01,,Ativo,RHN,0
12510500,PONTE DO RIO LIBERDADE,1,3450.0,12,TARAUACÁ,ACRE,ANA,ÁGUA E SOLO,-7.7994,-72.0211,189.0,RIO LIBERDADE,2013-12-01,,Ativo,RHN,0
12520000,IPIXUNA,1,56100.0,12,IPIXUNA,AMAZONAS,ANA,ÁGUA E SOLO,-7.0556,-71.6892,,RIO JURUÁ,1981-10-01,,Ativo,RHN,0
12540000,SERINGAL SANTO AMARO,1,7350.0,12,EIRUNEPÉ,AMAZONAS,ANA,ÁGUA E SOLO,-7.2667,-70.9833,,RIO GREGÓRIO,1997-06-01,,Ativo,RHN,0
12550000,EIRUNEPÉ - MONTANTE,1,77300.0,12,EIRUNEPÉ,AMAZONAS,ANA,ÁGUA E SOLO,-6.6844,-69.8811,,RIO JURUÁ,1979-02-01,,Ativo,RHN,0
12557000,JORDÃO,1,17.05,12,JORDÃO,ACRE,SEMA-AC,SEMA-AC,-9.1883,-71.9525,239.0,RIO TARAUACÁ,2016-10-01,,Ativo,RHN,0
12590000,PONTE DE TARAUACÁ,1,8770.0,12,TARAUACÁ,ACRE,ANA,ÁGUA E SOLO,-8.1519,-70.7456,,RIO TARAUACÁ,2013-11-01,,Ativo,RHN,0
12640000,SERINGAL SANTA HELENA,1,12800.0,12,FEIJÓ,ACRE,ANA,ÁGUA E SOLO,-8.6858,-70.5511,,RIO ENVIRA,1997-02-01,,Ativo,RHN,0
12650000,FEIJÓ,1,17000.0,12,FEIJÓ,ACRE,ANA,ÁGUA E SOLO,-8.1636,-70.3564,,RIO ENVIRA,1980-09-01,,Ativo,RHN,0
12680000,ENVIRA,1,49700.0,12,ENVIRA,AMAZONAS,ANA,ÁGUA E SOLO,-7.4281,-70.0225,,RIO TARAUACÁ,1978-01-01,,Ativo,RHN,0
12700000,SANTOS DUMONT,1,144000.0,12,ITAMARATI,AMAZONAS,ANA,ÁGUA E SOLO,-6.4403,-68.2461,,RIO JURUÁ,1981-04-01,,Ativo,RHN,0
12840000,GAVIÃO,1,164000.0,12,CARAUARI,AMAZONAS,ANA,ÁGUA E SOLO,-4.8392,-66.8506,,RIO JURUÁ,1972-06-01,,Ativo,RHN,0
12842000,FORTE DAS GRAÇAS,1,174000.0,12,JURUÁ,AMAZONAS,ANA,ÁGUA E SOLO,-3.6414,-66.1031,,RIO JURUÁ,1997-07-01,,Ativo,RHN,0
12845000,VILA BITTENCOURT,1,206000.0,12,JAPURÁ,AMAZONAS,ANA,ÁGUA E SOLO,-1.3947,-69.4283,,RIO CAQUETÁ/JAPURÁ,1980-01-01,,Ativo,RHN,0
12850000,ACANAUI,1,249000.0,12,JAPURÁ,AMAZONAS,ANA,ÁGUA E SOLO,-1.8211,-66.6092,,RIO CAQUETÁ/JAPURÁ,1973-07-01,,Ativo,RHN,0
12880000,ESTIRÃO DA SANTA CRUZ,1,13700.0,12,TEFÉ,AMAZONAS,ANA,ÁGUA E SOLO,-4.2922,-65.2017,,RIO TEFÉ,1981-02-01,,Ativo,RHN,0
12900001,TEFÉ - MISSÕES,1,1730000.0,12,TEFÉ,AMAZONAS,ANA,ÁGUA E SOLO,-3.3758,-64.6547,,RIO SOLIMÕES-AMAZONAS,1982-08-01,,Ativo,RHN,0
13100000,SERINGAL MOREIRA,1,8200.0,13,COARI,AMAZONAS,ANA,ÁGUA E SOLO,-5.1092,-63.9847,,RIO COARI,1980-12-01,,Ativo,RHN,0
13150003,COARI,1,1780000.0,13,COARI,AMAZONAS,ANA,SGB-CPRM,-4.0856,-63.0833,,RIO SOLIMÕES-AMAZONAS,1982-07-01,,Ativo,RHN,0
13169900,SANTA ROSA DO PURUS - SEDE,1,15917.0,13,SANTA ROSA DO PURUS,ACRE,ANA,ÁGUA E SOLO,-9.4342,-70.4942,,RIO PURUS,2016-10-01,,Ativo,RHN,0
13180000,MANOEL URBANO,1,32800.0,13,MANOEL URBANO,ACRE,ANA,SGB-CPRM,-8.8886,-69.275,,RIO PURUS,1981-09-01,,Ativo,RHN,0
13300000,SERINGAL SÃO JOSÉ,1,11200.0,13,SENA MADUREIRA,ACRE,ANA,SGB-CPRM,-9.3744,-68.7239,,RIO IACO,1981-09-01,,Ativo,RHN,0
13310000,SENA MADUREIRA,1,18000.0,13,SENA MADUREIRA,ACRE,ANA,SGB-CPRM,-9.0678,-68.6531,,RIO IACO,2005-10-01,,Ativo,RHN,0
13405000,SERINGAL GUARANY,1,6110.0,13,SENA MADUREIRA,ACRE,ANA,ÁGUA E SOLO,-9.1103,-68.9933,,RIO CAETÉ,1983-01-01,,Ativo,RHN,0
13410000,SERINGAL DA CARIDADE,1,63100.0,13,BOCA DO ACRE,AMAZONAS,ANA,SGB-CPRM,-9.0439,-68.5772,,RIO PURUS,1967-08-01,,Ativo,RHN,0
13439000,ALDEIA DOS PATOS,1,2100.0,13,ASSIS BRASIL,ACRE,SEMA-AC,SEMA-AC,-10.9261,-69.9233,256.0,RIO ACRE,2018-02-01,2023-02-01,Ativo,RHN,0
13445000,PONTE BRASIL-PERU,1,3760.0,13,ASSIS BRASIL,ACRE,ANA,SGB-CPRM,-10.9414,-69.5769,,RIO ACRE,,,Ativo,RHN,0
13470000,BRASILÉIA,1,7020.0,13,BRASILÉIA,ACRE,ANA,SGB-CPRM,-11.0178,-68.745,,RIO ACRE,1982-07-01,,Ativo,RHN,0
13540000,COLÔNIA DOLORES (XAPURI),1,3730.0,13,XAPURI,ACRE,ANA,SGB-CPRM,-10.5606,-68.7047,,RIO XAPURI,2013-08-01,,Ativo,RHN,0
13550000,XAPURI,1,8270.0,13,XAPURI,ACRE,ANA,SGB-CPRM,-10.6511,-68.5075,,RIO ACRE,1967-08-01,,Ativo,RHN,0
13568000,CAPIXABA (Colocação São José),1,15000.0,13,CAPIXABA,ACRE,ANA,SGB-CPRM,-10.3886,-67.9353,,RIO ACRE,2012-09-01,,Ativo,RHN,0
13572000,ESPALHA (Seringal Belo Horizonte),1,3210.0,13,RIO BRANCO,ACRE,ANA,SGB-CPRM,-10.005,-68.5294,,RIOZINHO DA ROLA ou RIO BRANCO,2012-09-01,,Ativo,RHN,0
13578000,RIO ROLA (Ramal do Barro Alto),1,6520.0,13,RIO BRANCO,ACRE,ANA,SGB-CPRM,-10.0567,-67.9639,,RIOZINHO DA ROLA ou RIO BRANCO,2012-09-01,,Ativo,RHN,0
13600002,RIO BRANCO,1,23500.0,13,RIO BRANCO,ACRE,ANA,SGB-CPRM,-9.975,-67.8008,,RIO ACRE,1967-08-01,,Ativo,RHN,0
13610001,PORTO ACRE,1,,13,PORTO ACRE,ACRE,SEMA-AC,SEMA-AC,-9.5819,-67.5281,134.0,RIO ACRE,2018-02-01,,Ativo,RHN,0
13650000,FLORIANO PEIXOTO,1,34400.0,13,BOCA DO ACRE,AMAZONAS,ANA,ÁGUA E SOLO,-9.0667,-67.3969,,RIO ACRE,1967-08-01,,Ativo,RHN,0
13710001,VALPARAÍSO - MONTANTE,1,105000.0,13,BOCA DO ACRE,AMAZONAS,ANA,ÁGUA E SOLO,-8.6533,-67.375,,RIO PURUS,1975-01-01,,Ativo,RHN,0
13870000,LÁBREA,1,226000.0,13,LÁBREA,AMAZONAS,ANA,ÁGUA E SOLO,-7.2581,-64.7975,60.0,RIO PURUS,1967-06-01,,Ativo,RHN,0
13885000,CRISTO,1,7030.0,13,LÁBREA,AMAZONAS,ANA,ÁGUA E SOLO,-7.4644,-64.2433,,RIO MUCUIM,1975-07-01,,Ativo,RHN,0
13962000,ARUMÃ - JUSANTE,1,366000.0,13,BERURI,AMAZONAS,ANA,SGB-CPRM,-4.7286,-62.1453,,RIO PURUS,1975-11-01,,Ativo,RHN,0
13990000,BERURI,1,377000.0,13,BERURI,AMAZONAS,ANA,SGB-CPRM,-3.8989,-61.3742,,RIO PURUS,1967-06-01,,Ativo,RHN,0
14000900,MITU AUTOMATICA,1,21500.0,14,MITU,COLÔMBIA,IDEAM-COLÔMBIA,IDEAM-COLÔMBIA,1.2594,-70.2389,,RIO VAUPÉS/UAUPÉS,1984-04-01,,Ativo,RHN,0
14110000,CUCUÍ,1,74300.0,14,SÃO GABRIEL DA CACH,AMAZONAS,ANA,SGB-CPRM,1.2153,-66.8525,,RIO NEGRO,1980-07-01,,Ativo,RHN,0
14235200,FAZENDA RECREIO,1,,14,BOA VISTA,RORAIMA,FEMARH-RR,FEMARH-RR,2.8642,-60.7517,,RIO CAUAMÉ,,,Ativo,RHN,0
14280001,TARAQUÁ,1,44300.0,14,SÃO GABRIEL DA CACH,AMAZONAS,ANA,SGB-CPRM,0.1303,-68.5386,,RIO VAUPÉS/UAUPÉS,1977-05-01,,Ativo,RHN,0
14330000,CURICURIARI,1,194000.0,14,SÃO GABRIEL DA CACH,AMAZONAS,ANA,SGB-CPRM,-0.2006,-66.8022,,RIO NEGRO,1977-11-01,,Ativo,RHN,0
14420000,SERRINHA,1,293000.0,14,SANTA IZABEL DO RIO,AMAZONAS,ANA,SGB-CPRM,-0.4819,-64.8289,,RIO NEGRO,1977-08-01,,Ativo,RHN,0
14480002,BARCELOS,1,379000.0,14,BARCELOS,AMAZONAS,ANA,SGB-CPRM,-0.9658,-62.9311,,RIO NEGRO,1967-11-01,,Ativo,RHN,0
14488000,UAICÁS,1,16100.0,14,ALTO ALEGRE,RORAIMA,ANA,SGB-CPRM,3.5497,-63.1692,,RIO URARICOERA,1984-05-01,,Ativo,RHN,0
14489000,MARACÁ,1,26700.0,14,ALTO ALEGRE,RORAIMA,ANA,SGB-CPRM,3.3528,-61.4222,,RIO URARICOERA,2005-11-01,,Ativo,RHN,0
14495000,FAZENDA CAJUPIRANGA,1,36900.0,14,ALTO ALEGRE,RORAIMA,ANA,SGB-CPRM,3.4381,-61.0367,,RIO URARICOERA,1979-09-01,,Ativo,RHN,0
14500000,MOCIDADE,1,43900.0,14,BOA VISTA,RORAIMA,ANA,SGB-CPRM,3.4644,-60.9097,,RIO URARICOERA,1975-10-01,,Ativo,RHN,0
14515000,FAZENDA PASSARÃO,1,50200.0,14,BOA VISTA,RORAIMA,ANA,SGB-CPRM,3.2078,-60.5711,,RIO URARICOERA,1977-05-01,,Ativo,RHN,0
14526400,RIO MAÚ,1,,14,UIRAMUTÃ,RORAIMA,FEMARH-RR,FEMARH-RR,4.5761,-60.1397,,RIO MAÚ OU IRENG,,,Ativo,RHN,0
14527000,PONTE DO TACUTU,1,24300.0,14,NORMÂNDIA,RORAIMA,ANA,SGB-CPRM,3.5675,-59.8883,,RIO TACUTU,2005-11-01,,Ativo,RHN,0
14530000,VILA SURUMU,1,2280.0,14,PACARAIMA,RORAIMA,ANA,SGB-CPRM,4.1961,-60.7939,,RIO SURUMU,1984-01-01,,Ativo,RHN,0
14540000,FAZENDA BANDEIRA BRANCA,1,3210.0,14,UIRAMUTÃ,RORAIMA,ANA,SGB-CPRM,4.6306,-60.4706,,RIO COTINGO,1970-10-01,,Ativo,RHN,0
14558000,FAZENDA PARAÍSO,1,40600.0,14,BONFIM,RORAIMA,ANA,SGB-CPRM,3.3178,-60.3447,,RIO TACUTU,2012-05-01,,Ativo,RHN,0
14620000,BOA VISTA,1,97200.0,14,BOA VISTA,RORAIMA,ANA,SGB-CPRM,2.8267,-60.6561,,RIO BRANCO,1967-12-01,,Ativo,RHN,0
14680001,FÉ E ESPERANÇA,1,12200.0,14,MUCAJAÍ,RORAIMA,ANA,SGB-CPRM,2.8708,-61.4406,,RIO MUCAJAÍ,1973-12-01,,Ativo,RHN,0
14690000,MUCAJAÍ,1,19800.0,14,MUCAJAÍ,RORAIMA,ANA,SGB-CPRM,2.4714,-60.9178,,RIO MUCAJAÍ,1995-03-01,,Ativo,RHN,0
14710000,CARACARAÍ,1,126000.0,14,CARACARAÍ,RORAIMA,ANA,SGB-CPRM,1.8214,-61.1236,,RIO BRANCO,1967-01-01,,Ativo,RHN,0
14740000,FAZENDA ANAUÁ,1,5900.0,14,CARACARAÍ,RORAIMA,ANA,SGB-CPRM,1.1292,-60.2236,,RIO ANAUA,2005-09-01,,Ativo,RHN,0
14790000,SANTA MARIA DO BOIAÇU,1,184000.0,14,RORAINÓPOLIS,RORAIMA,ANA,SGB-CPRM,-0.5053,-61.7864,,RIO BRANCO,1967-02-01,,Ativo,RHN,0
14840000,MOURA,1,593000.0,14,BARCELOS,AMAZONAS,ANA,SGB-CPRM,-1.4567,-61.6347,,RIO NEGRO,1979-01-01,,Ativo,RHN,0
14850000,BASE ALALAÚ,1,7080.0,14,RORAINÓPOLIS,RORAIMA,ANA,SGB-CPRM,-0.8586,-60.52,59.0,RIO ALALAU,1977-06-01,,Ativo,RHN,0
14990000,MANAUS,1,712000.0,14,MANAUS,AMAZONAS,ANA,SGB-CPRM,-3.1383,-60.0272,,RIO NEGRO,1902-09-01,2014-06-01,Ativo,RHN,0
15030000,JATUARANA,1,2920000.0,15,MANAUS,AMAZONAS,ANA,SGB-CPRM,-3.0633,-59.6478,,RIO SOLIMÕES-AMAZONAS,1977-08-01,,Ativo,RHN,0
15050001,PONTES E LACERDA,1,2990.0,15,PONTES E LACERDA,MATO GROSSO,SEMA-MT,SEMA-MT,-15.2158,-59.353,,RIO GUAPORÉ,2011-10-01,,Ativo,RHN,0
15120002,VILA BELA ST.TRINDADE,1,,15,VILA BELA DA SANTÍS,MATO GROSSO,SEMA-MT,SEMA-MT,-15.009,-59.956,196.0,RIO GUAPORÉ,2024-11-01,,Ativo,RHN,0
15124009,CABIXI,1,3600.0,15,CABIXI,RONDÔNIA,ANA,SGB-CPRM,-13.5125,-60.53,,RIO CABIXI ou BRANCO,1988-03-01,,Ativo,RHN,0
15130000,PIMENTEIRAS,1,54400.0,15,PIMENTEIRAS DO OEST,RONDÔNIA,ANA,SGB-CPRM,-13.4858,-61.05,,RIO GUAPORÉ,1983-03-01,,Ativo,RHN,0
15150000,PEDRAS NEGRAS,1,110000.0,15,COSTA MARQUES,RONDÔNIA,ANA,SGB-CPRM,-12.8514,-62.8992,152.0,RIO GUAPORÉ,1980-12-01,,Ativo,RHN,0
15200000,PRINCIPE DA BEIRA,1,341000.0,15,COSTA MARQUES,RONDÔNIA,ANA,SGB-CPRM,-12.4267,-64.4253,,RIO GUAPORÉ,1983-04-01,,Ativo,RHN,0
15248010,BOCA DO POMPEU - JUSANTE,1,4390.0,15,GUAJARÁ-MIRIM,RONDÔNIA,ANA,SGB-CPRM,-10.9175,-65.0433,,RIO OURO PRETO,1982-07-01,,Ativo,RHN,0
15307000,SALVACION,1,223.0,15,PERU,PERU,SENAMHI-PERU,SENAMHI-PERU,-12.8333,-71.5,520.0,RIO MADRE DE DIOS,1986-01-01,,Ativo,RHN,0
15308000,PAKITZA,1,9700.0,15,PERU,PERU,SENAMHI-PERU,SENAMHI-PERU,-11.95,-71.2833,319.0,RIO MADRE DE DIOS,2001-01-01,,Ativo,RHN,0
15320002,ABUNÃ,1,921000.0,15,PORTO VELHO,RONDÔNIA,ANA,SGB-CPRM,-9.7053,-65.3667,74.65,RIO MADEIRA,1976-02-01,,Ativo,RHN,0
15324000,PLÁCIDO DE CASTRO,1,7740.0,15,PLÁCIDO DE CASTRO,ACRE,ANA,SGB-CPRM,-10.3378,-67.1831,,RIO ABUNÃ,1992-06-01,,Ativo,RHN,0
15400000,PORTO VELHO,1,976000.0,15,PORTO VELHO,RONDÔNIA,ANA,SGB-CPRM,-8.7483,-63.9169,42.88,RIO MADEIRA,1964-02-01,,Ativo,RHN,0
15430000,ARIQUEMES,1,8140.0,15,ARIQUEMES,RONDÔNIA,ANA,SGB-CPRM,-9.9256,-63.0714,87.67,RIO JAMARI,1970-06-01,,Ativo,RHN,0
15490000,PROSPERIDADE (EX. FOZ DO JAMARI),1,977000.0,15,PORTO VELHO,RONDÔNIA,ANA,SGB-CPRM,-8.4522,-63.5178,40.0,RIO MADEIRA,1977-10-01,,Ativo,RHN,0
15490200,SÃO CARLOS,1,1400000.0,15,PORTO VELHO,RONDÔNIA,DNIT,DNIT,-8.4258,-63.4836,38.0,RIO MADEIRA,2021-05-01,,Ativo,RHN,0
15490600,PORTO VELHO,1,1400000.0,15,PORTO VELHO,RONDÔNIA,DNIT,DNIT,-8.5844,-63.7331,41.0,RIO MADEIRA,2021-05-01,,Ativo,RHN,0
15550000,SANTA ISABEL,1,12700.0,15,CANDÉIAS DO JAMARI,RONDÔNIA,ANA,SGB-CPRM,-8.7986,-63.7106,,RIO CANDEIAS,1976-03-01,,Ativo,RHN,0
15552600,FAZENDA FLOR DO CAMPO,1,4360.0,15,PIMENTA BUENO,RONDÔNIA,ANA,SGB-CPRM,-11.7489,-60.8678,185.0,RIO COMEMORAÇÃO,1982-12-01,,Ativo,RHN,0
15558000,PIMENTA BUENO,1,10100.0,15,PIMENTA BUENO,RONDÔNIA,ANA,SGB-CPRM,-11.6836,-61.1922,,RIO APEDIA  ou PIMENTA BUENO,1980-05-01,,Ativo,RHN,0
15558200,CACOAL,1,17900.0,15,CACOAL,RONDÔNIA,SEDAM-RO,SEDAM-RO,-11.4444,-61.4408,160.0,RIO PIRARARA,2015-07-01,,Ativo,RHN,0
15560000,JI-PARANÁ,1,32800.0,15,JIPARANÁ,RONDÔNIA,ANA,SGB-CPRM,-10.8736,-61.9356,129.6,RIO JI-PARANÁ (ou MACHADO),1977-12-01,,Ativo,RHN,0
15564000,JARUARU,1,133.0,15,JARU,RONDÔNIA,SEDAM-RO,SEDAM-RO,-10.8317,-62.8925,,RIO JARU,2011-04-01,,Ativo,RHN,0
15580000,TABAJARA,1,60200.0,15,MACHADINHO D'OESTE,RONDÔNIA,ANA,SGB-CPRM,-8.9322,-62.0556,68.0,RIO JI-PARANÁ (ou MACHADO),1977-12-01,,Ativo,RHN,0
15627300,ESPÍRITO SANTO,1,1400000.0,15,PORTO VELHO,RONDÔNIA,DNIT,DNIT,-8.1925,-63.1333,33.0,RIO MADEIRA,2021-05-01,,Ativo,RHN,0
15627400,CALAMA,1,1400000.0,15,PORTO VELHO,RONDÔNIA,DNIT,DNIT,-8.0806,-62.8781,31.0,RIO MADEIRA,2021-05-01,,Ativo,RHN,0
15630000,HUMAITÁ,1,1090000.0,15,HUMAITÁ,AMAZONAS,ANA,ÁGUA E SOLO,-7.5028,-63.0183,,RIO MADEIRA,1931-03-01,,Ativo,RHN,0
15660000,MAICI-MIRIM,1,735.0,15,HUMAITÁ,AMAZONAS,ANA,ÁGUA E SOLO,-7.6303,-62.6553,,RIO MAICIMIRIM,1997-01-01,,Ativo,RHN,0
15750575,ARIPUANÃ,1,14800.0,15,ARIPUANÃ,MATO GROSSO,SEMA-MT,SEMA-MT,-10.1428,-59.4297,127.0,RIO ARIPUANÃ,,,Ativo,RHN,0
15860000,FAZENDA VISTA ALEGRE,1,1310000.0,15,NOVO ARIPUANÃ,AMAZONAS,ANA,ÁGUA E SOLO,-4.8972,-60.0253,,RIO MADEIRA,1975-03-01,,Ativo,RHN,0
15910000,SANTARÉM SUCUNDURI,1,12700.0,15,APUÍ,AMAZONAS,ANA,ÁGUA E SOLO,-6.7956,-59.0422,49.0,RIO SUCUNDURI,1975-05-01,,Ativo,RHN,0
16030000,ITACOATIARA,1,4350000.0,16,ITACOATIARA,AMAZONAS,ANA,SGB-CPRM,-3.1539,-58.4114,,RIO SOLIMÕES-AMAZONAS,1927-11-01,,Ativo,RHN,0
16100000,CACHOEIRA MORENA,1,20400.0,16,PRESIDENTE FIGUEIRE,AMAZONAS,ANA,SGB-CPRM,-2.1061,-59.3442,,RIO UATUMÃ,1973-01-01,,Ativo,RHN,0
16205000,BASE SIDERAMA - JUSANTE,1,24600.0,16,URUCARÁ,AMAZONAS,ANA,SGB-CPRM,-1.6833,-58.5333,,RIO JATAPU,2001-07-01,2023-03-01,Ativo,RHN,0
16350002,PARINTINS,1,4430000.0,16,PARINTINS,AMAZONAS,ANA,SGB-CPRM,-2.6306,-56.7519,,RIO SOLIMÕES-AMAZONAS,1967-08-01,,Ativo,RHN,0
16430000,GARGANTA,1,39000.0,16,ORIXIMINÁ,PARÁ,ANA,SGB-CPRM,-0.9978,-57.0431,,RIO TROMBETAS,1981-10-01,,Ativo,RHN,0
16500000,ESTIRÃO DA ANGÉLICA,1,25800.0,16,ORIXIMINÁ,PARÁ,ANA,SGB-CPRM,-1.1006,-57.0569,11.83,RIO MAPUERA OU URUCURINA,1970-10-01,,Ativo,RHN,0
16661000,TABULEIRO - REBIO TROMBETAS,1,79000.0,16,ORIXIMINÁ,PARÁ,ANA,SGB-CPRM,-1.3706,-56.8519,,RIO TROMBETAS,2007-05-01,,Ativo,RHN,0
16900000,ORIXIMINÁ,1,127000.0,16,ORIXIMINÁ,PARÁ,ANA,SGB-CPRM,-1.7764,-55.8622,,RIO TROMBETAS,1968-07-01,,Ativo,RHN,0
17050001,ÓBIDOS,1,4670000.0,17,ÓBIDOS,PARÁ,ANA,SGB-CPRM,-1.9192,-55.5131,,RIO SOLIMÕES-AMAZONAS,1968-02-01,,Ativo,RHN,0
17091190,COMODORO - RIO JUÍNA,1,,17,CAMPOS DE JÚLIO,MATO GROSSO,SEMA-MT,SEMA-MT,-13.7942,-59.4556,472.0,RIO JUÍNA,2024-11-01,,Ativo,RHN,0
17091450,FAZENDA RODIAL,1,1441.0,17,SAPEZAL,MATO GROSSO,SEMA-MT,SEMA-MT,-13.5453,-58.6378,,RIO BURITI,2011-08-01,,Ativo,RHN,0
17091508,SAPEZAL - RIO PAPAGAIO,1,,17,SAPEZAL,MATO GROSSO,SEMA-MT,SEMA-MT,-13.5783,-58.4069,436.0,RIO PAPAGAIO,2024-11-01,,Ativo,RHN,0
17091546,CAMPO NOVO PARECIS - RIO VERDE,1,,17,CAMPO NOVO DO PAREC,MATO GROSSO,SEMA-MT,SEMA-MT,-13.7072,-57.9958,500.0,RIO VERDE OU TAUIUINA,2024-11-01,,Ativo,RHN,0
17092960,PONTE ANTIGA BR-364,1,16275.0,17,SAPEZAL,MATO GROSSO,SEMA-MT,SEMA-MT,-12.7998,-58.3984,67.0,RIO PAPAGAIO,2011-10-01,,Ativo,RHN,0
17093010,MT-170,1,2243.0,17,JUÍNA,MATO GROSSO,SEMA-MT,SEMA-MT,-11.3568,-58.3544,,RIO JUINA MIRIM,2011-10-01,,Ativo,RHN,0
17093020,RIO JURUENA - PONTE EM JUÍNA,1,,17,JUÍNA,MATO GROSSO,SEMA-MT,SEMA-MT,-11.5303,-58.3797,,RIO JURUENA,,,Ativo,RHN,0
17094300,BRASNORTE,1,21622.0,17,BRASNORTE,MATO GROSSO,SEMA-MT,SEMA-MT,-12.0977,-57.8805,,RIO DO SANGUE,2011-08-01,,Ativo,RHN,0
17098500,FAZENDA CACHOEIRA GRANDE,1,2636.0,17,NOVA MUTUM,MATO GROSSO,SEMA-MT,SEMA-MT,-14.2173,-56.0351,,RIO ARINOS,2011-08-01,,Ativo,RHN,0
17099000,FAZENDA CACHOEIRA DE PAU,1,6011.0,17,NOVA MUTUM,MATO GROSSO,SEMA-MT,SEMA-MT,-13.8314,-56.4097,,RIO ARINOS,2011-08-01,,Ativo,RHN,0
17099500,FAZENDA MASSAPÉ,1,5138.0,17,SÃO JOSÉ DO RIO CLA,MATO GROSSO,SEMA-MT,SEMA-MT,-13.5034,-56.6189,,RIO CLARO,2011-10-01,,Ativo,RHN,0
17120200,JUARA - RIO ARINOS,1,38670.0,17,JUARA,MATO GROSSO,SEMA-MT,SEMA-MT,-11.2239,-57.6019,220.0,RIO ARINOS,,,Ativo,RHN,0
17122001,JUARA,1,14334.0,17,JUARA,MATO GROSSO,SEMA-MT,SEMA-MT,-10.8231,-57.7272,,RIO DOS PEIXES,2011-10-01,,Ativo,RHN,0
17130000,FOZ DO JURUENA,1,182000.0,17,APIACÁS,MATO GROSSO,ANA,VLF,-7.7311,-58.2808,123.0,RIO JURUENA,1986-11-01,,Ativo,RHN,0
17271100,SORRISO,1,840.0,17,SORRISO,MATO GROSSO,SEMA-MT,SEMA-MT,-12.5358,-55.7047,,RIO TENENTE LIRA,2011-08-01,,Ativo,RHN,0
17277000,FAZENDA CERON,1,1792.0,17,SORRISO,MATO GROSSO,SEMA-MT,SEMA-MT,-12.31,-55.5678,,RIO CELESTE,2011-08-01,,Ativo,RHN,0
17343010,PEIXOTO DE AZEVEDO,1,10738.0,17,PEIXOTO DE AZEVEDO,MATO GROSSO,SEMA-MT,SEMA-MT,-10.2194,-54.9708,255.0,RIO PEIXOTO DE AZEVEDO,,,Ativo,RHN,0
17381000,ALTA FLORESTA,1,81823.0,17,ALTA FLORESTA,MATO GROSSO,SEMA-MT,SEMA-MT,-9.6392,-56.0144,225.0,RIO TELES PIRES (OU SÃO MANUEL),,,Ativo,RHN,0
17420000,TRÊS MARIAS,1,138000.0,17,ARIPUANÃ,MATO GROSSO,ANA,VLF,-7.6147,-57.9503,129.0,RIO TELES PIRES (OU SÃO MANUEL),1975-11-01,,Ativo,RHN,0
17430000,BARRA DO SÃO MANUEL,1,333000.0,17,BORBA,AMAZONAS,ANA,VLF,-7.3397,-58.1553,,RIO TAPAJÓS,1975-10-01,,Ativo,RHN,0
17680000,JAMANXIM,1,40200.0,17,ITAITUBA,PARÁ,ANA,VLF,-5.4556,-55.87,,RIO JAMANXIM,1985-09-01,,Ativo,RHN,0
17710000,BUBURÉ,1,450000.0,17,ITAITUBA,PARÁ,ANA,VLF,-4.6156,-56.325,,RIO TAPAJÓS,1995-06-01,,Ativo,RHN,0
17730000,ITAITUBA,1,458000.0,17,ITAITUBA,PARÁ,ANA,VLF,-4.2756,-55.9822,,RIO TAPAJÓS,1968-02-01,,Ativo,RHN,0
17730001,ITAITUBA,1,,17,ITAITUBA,PARÁ,DNIT,DNIT,-4.2758,-55.9817,,RIO TAPAJÓS,2024-10-01,,Ativo,RHN,0
17835400,AVEIRO,1,492000.0,17,AVEIRO,PARÁ,DNIT,DNIT,-3.6042,-55.3322,,RIO TAPAJÓS,2021-06-01,,Ativo,RHN,0
17835600,FORDLÂNDIA,1,492000.0,17,AVEIRO,PARÁ,DNIT,DNIT,-3.8314,-55.5003,,RIO TAPAJÓS,2021-06-01,,Ativo,RHN,0
17835700,PAU DA LETRA,1,,17,SANTARÉM,PARÁ,DNIT,DNIT,-3.0989,-55.2322,,RIO TAPAJÓS,2024-10-01,,Ativo,RHN,0
17899997,SANTARÉM,1,,17,SANTARÉM,PARÁ,DNIT,DNIT,-2.4139,-54.7383,,RIO TAPAJÓS,2024-10-01,,Ativo,RHN,0
18390000,ALMEIRIM,1,5460000.0,18,ALMEIRIM,PARÁ,ANA,SGB-CPRM,-1.5328,-52.5769,,RIO SOLIMÕES-AMAZONAS,2014-03-01,,Ativo,RHN,0
18409000,PASSAGEM DA BR-309,1,706.0,18,PARANATINGA,MATO GROSSO,ANA,SGB-CPRM,-14.6111,-53.9986,570.0,RIO CULUENE,1994-01-01,,Ativo,RHN,0
18415000,POUSADA MATRINXA,1,11600.0,18,CANARANA,MATO GROSSO,ANA,SGB-CPRM,-13.5692,-53.0761,323.0,RIO CULUENE,2000-08-01,,Ativo,RHN,0
18415300,GAÚCHA DO NORTE - RIO CULUENE,1,12900.0,18,GAUCHA DO NORTE,MATO GROSSO,SEMA-MT,SEMA-MT,-13.3947,-53.0419,325.0,RIO CULUENE,,,Ativo,RHN,0
18420000,FAZENDA ITAGUAÇU,1,3840.0,18,PARANATINGA,MATO GROSSO,ANA,SGB-CPRM,-13.1408,-54.4453,317.0,RIO RONURO,1977-04-01,,Ativo,RHN,0
18421000,FOZ RONURO,1,10300.0,18,FELIZ NATAL,MATO GROSSO,ANA,SGB-CPRM,-12.3692,-54.1383,,RIO RONURO,2010-05-01,,Ativo,RHN,0
18421600,PONTE MT 423 RIO AZUL,1,3728.0,18,CLAÚDIA,MATO GROSSO,SEMA-MT,SEMA-MT,-11.4722,-54.9944,,RIO AZUL,2011-08-01,,Ativo,RHN,0
18422000,RIACHO DE DEUS,1,11600.0,18,MARCELÂNDIA,MATO GROSSO,ANA,SGB-CPRM,-11.1272,-54.4767,280.0,RIO MANISSAUA - MIÇU,2004-10-01,,Ativo,RHN,0
18423400,FAZENDA SÃO JUDAS TADEU,1,4201.0,18,CANARANA,MATO GROSSO,SEMA-MT,SEMA-MT,-13.4956,-52.4144,,RIO SETE DE SETEMBRO,,,Ativo,RHN,0
18425200,MT-442,1,2131.0,18,SANTA CARMEM,MATO GROSSO,SEMA-MT,SEMA-MT,-11.9281,-54.999,,RIO TARTARUGA,2011-08-01,,Ativo,RHN,0
18426200,QUERÊNCIA - RIO SUIÁ MIÇÚ,1,1200.0,18,QUERÊNCIA,MATO GROSSO,SEMA-MT,SEMA-MT,-13.1569,-52.1497,317.0,RIO SUIA-MIÇU,,,Ativo,RHN,0
18428000,SANTA CRUZ DO SUIA,1,3510.0,18,QUERÊNCIA,MATO GROSSO,ANA,SGB-CPRM,-12.6219,-52.0589,305.0,RIO SUIA-MIÇU,2004-10-01,,Ativo,RHN,0
18435000,RIO COMANDANTE FONTOURA,1,5430.0,18,SÃO JOSÉ DO XINGU,MATO GROSSO,ANA,SGB-CPRM,-10.5547,-52.1833,259.0,RIO COMANDANTE FONTOURA,1999-10-01,,Ativo,RHN,0
18460000,BOA SORTE,1,210000.0,18,SÃO FÉLIX DO XINGU,PARÁ,ANA,SGB-CPRM,-6.7358,-51.9953,,RIO XINGU,1977-01-01,2020-03-01,Ativo,RHN,0
18480000,FAZENDA RIO DOURADO,1,6860.0,18,CUMARU DO NORTE,PARÁ,ANA,SGB-CPRM,-8.3269,-51.4603,,RIO FRESCO,1999-08-01,,Ativo,RHN,0
18500000,BOA ESPERANÇA,1,42400.0,18,SÃO FÉLIX DO XINGU,PARÁ,ANA,SGB-CPRM,-6.7453,-51.7736,,RIO FRESCO,1975-11-01,,Ativo,RHN,0
18590000,MANOEL JORGE  (TERRA PRETA),1,56900.0,18,ALTAMIRA,PARÁ,ANA,SGB-CPRM,-6.1872,-54.0836,,RIO IRIRI,1999-09-01,,Ativo,RHN,0
18600000,LARANJEIRAS,1,58700.0,18,ALTAMIRA,PARÁ,ANA,SGB-CPRM,-5.6967,-54.2456,,RIO IRIRI,1975-11-01,2022-04-01,Ativo,RHN,0
18650000,CAJUEIRO,1,35600.0,18,ALTAMIRA,PARÁ,ANA,SGB-CPRM,-5.65,-54.5208,,RIO CURUÁ,1975-11-01,,Ativo,RHN,0
18700000,PEDRA DO Ó,1,122000.0,18,ALTAMIRA,PARÁ,ANA,SGB-CPRM,-4.5278,-54.0125,,RIO IRIRI,1976-09-01,2003-05-01,Ativo,RHN,0
18850000,ALTAMIRA,1,448000.0,18,ALTAMIRA,PARÁ,ANA,SGB-CPRM,-3.2147,-52.2122,,RIO XINGU,1928-05-01,,Ativo,RHN,0
18880000,FAZENDA CIPAÚBA,1,24700.0,18,ANAPU,PARÁ,ANA,VLF,-3.7314,-51.5675,,RIO BACAJÁ,1977-11-01,,Ativo,RHN,0
18936000,VITÓRIA DO XINGU,1,714.0,18,VITÓRIA DO XINGU,PARÁ,ANA,SGB-CPRM,-2.8819,-52.0114,,RIO TUCURUI,2020-12-01,,Ativo,RHN,0
18938001,SOUZEL,1,486000.0,18,SENADOR JOSÉ PORFIR,PARÁ,ANA,SGB-CPRM,-2.6219,-51.9544,,RIO XINGU,2020-12-01,,Ativo,RHN,0
18950003,PORTO DE MOZ,1,509000.0,18,PORTO DE MOZ,PARÁ,ANA,SGB-CPRM,-1.7531,-52.24,,RIO XINGU,1979-03-01,,Ativo,RHN,0
19152000,LARANJAL DO JARI MONTANTE,1,53000.0,19,LARANJAL DO JARÍ,AMAPÁ,SEMA-AP,SEMA-AP,-0.8236,-52.5239,,RIO JARI,2014-05-01,,Ativo,RHN,0
19152500,LARANJAL DO JARI,1,53100.0,19,LARANJAL DO JARÍ,AMAPÁ,ANA,SGB-CPRM,-0.8569,-52.525,,RIO JARI,2011-07-01,,Ativo,RHN,0
19500000,MACAPÁ,1,5930000.0,19,MACAPÁ,AMAPÁ,ANA,SGB-CPRM,0.0219,-51.0503,,RIO SOLIMÕES-AMAZONAS,1975-12-01,2023-12-01,Ativo,RHN,0
19985000,PACAJÁS,1,2682.0,19,PACAJÁ,PARÁ,ANA,SGB-CPRM,-3.8511,-50.6397,,RIO PACAJÁS,1981-03-01,,Ativo,RHN,0
20001200,CONTAGEM - VC 201,1,139.0,20,BRASÍLIA,DISTRITO FEDERAL,ADASA-DF,ADASA-DF,-15.5008,-47.8542,,RIBEIRÃO DA CONTAGEM,2009-04-01,,Ativo,RHN,0
20001400,PALMA,1,,20,PLANALTINA,GOIÁS,ADASA-DF,ADASA-DF,-15.4875,-48.0458,,RIBEIRÃO DA PALMA,2009-04-01,,Ativo,RHN,0
20096000,PONTE DA DELEGACIA,1,,20,PIRENÓPOLIS,GOIÁS,SEMAD-GO,CIMEHGO,-15.8496,-48.959,789.0,RIO DAS ALMAS,2014-08-01,2014-12-01,Ativo,RHN,0
20100000,JARAGUÁ,1,1970.0,20,JARAGUÁ,GOIÁS,ANA,SGB-CPRM,-15.7242,-49.3219,598.0,RIO DAS ALMAS,1964-11-01,,Ativo,RHN,0
20200000,URUANA,1,3700.0,20,URUANA,GOIÁS,ANA,SGB-CPRM,-15.4961,-49.6908,600.0,RIO URU,1964-12-01,,Ativo,RHN,0
21210000,FAZENDA ESPÍRITO SANTO,1,533.0,21,FORMOSA,GOIÁS,ANA,SGB-CPRM,-15.3222,-47.3817,579.0,RIO PARANÃ,2009-09-01,,Ativo,RHN,0
21220000,FLORES DE GOIÁS,1,7210.0,21,FLORES DE GOIÁS,GOIÁS,ANA,SGB-CPRM,-14.4508,-47.0472,,RIO PARANÃ,1975-06-01,,Ativo,RHN,0
21500000,NOVA ROMA (FAZ.SUCURI),1,22600.0,21,NOVA ROMA,GOIÁS,ANA,SGB-CPRM,-13.7625,-46.8375,,RIO PARANÃ,1970-10-01,,Ativo,RHN,0
21758000,AURORA DO TOCANTINS,1,1633.51,21,AURORA DO TOCANTINS,TOCANTINS,SEMARH-TO,SEMARH-TO,-12.6464,-46.6572,370.0,RIO PALMA,2010-03-01,,Ativo,RHN,0
21768950,TAGUATINGA - RIBEIRÃO DO ABREU,1,,21,TAGUATINGA,TOCANTINS,SEMARH-TO,SEMARH-TO,-12.4125,-46.4069,,RIBEIRÃO DO ABREU,,,Ativo,RHN,0
21800010,BARRA DO RIO PARANÃ,1,,21,PARANÃ,TOCANTINS,SEMARH-TO,SEMARH-TO,-12.6264,-47.8819,,RIO PARANÃ,2024-11-01,,Ativo,RHN,0
21844900,RIO PALMEIRAS - TAIPAS,1,4491.64,21,TAIPAS DO TOCANTINS,TOCANTINS,SEMARH-TO,SEMARH-TO,-12.3233,-46.9439,,RIO PALMEIRAS,2010-03-01,,Ativo,RHN,0
21891000,BARRA DE PALMAS,1,1689.79,21,PARANÃ,TOCANTINS,SEMARH-TO,SEMARH-TO,-12.6033,-47.8614,,RIO PALMA,2014-09-01,,Ativo,RHN,0
22050001,PEIXE,1,128000.0,22,PEIXE,TOCANTINS,ANA,SGB-CPRM,-12.0231,-48.5328,235.0,RIO TOCANTINS,1938-09-01,,Ativo,RHN,0
22100000,COLONHA,1,8720.0,22,PEIXE,TOCANTINS,ANA,SGB-CPRM,-12.3922,-48.7117,234.0,RIO SANTA TEREZA,1974-08-01,,Ativo,RHN,0
22140000,SÃO VALÉRIO,1,,22,SÃO VALÉRIO,TOCANTINS,SEMARH-TO,SEMARH-TO,-11.64,-48.3911,,RIO SÃO VALÉRIO,,,Ativo,RHN,0
22160000,GURUPI,1,3797.0,22,PEIXE,TOCANTINS,SEMARH-TO,SEMARH-TO,-11.8517,-48.8458,234.0,RIO SANTO ANTÔNIO,2006-09-01,,Ativo,RHN,0
22170000,RIO CRIXÁS,1,9040.0,22,BREJINHO DE NAZARÉ,TOCANTINS,SEMARH-TO,SEMARH-TO,-11.1306,-48.8003,,RIO CRIXÁS,2022-08-01,,Ativo,RHN,0
22186000,RIO MANUEL ALVES - PORTO ALEGRE,1,2266.85,22,DIANÓPOLIS,TOCANTINS,SEMARH-TO,SEMARH-TO,-11.8253,-47.1864,,RIO MANUEL ALVES,2017-02-01,,Ativo,RHN,0
22189995,PORTO ALEGRE DO TOCANTINS,1,,22,PORTO ALEGRE DO TOC,TOCANTINS,SEMARH-TO,SEMARH-TO,-11.6108,-47.0456,,RIO MANUEL ALVES,2024-12-01,,Ativo,RHN,0
22220000,PORTO JERÔNIMO - FAZ. PIRACICABA,1,10300.0,22,CHAPADA DA NATIVIDA,TOCANTINS,ANA,SGB-CPRM,-11.7586,-47.8367,282.0,RIO MANUEL ALVES,1974-07-01,,Ativo,RHN,0
22241000,RIO DO PEIXE - ALMAS,1,1789.33,22,ALMAS,TOCANTINS,SEMARH-TO,SEMARH-TO,-11.6667,-47.4392,333.0,RIO DO PEIXE,2019-11-01,,Ativo,RHN,0
22250000,FAZENDA LOBEIRA,1,14500.0,22,SÃO VALÉRIO,TOCANTINS,ANA,SGB-CPRM,-11.5328,-48.2886,230.0,RIO MANUEL ALVES,1969-08-01,,Ativo,RHN,0
22350200,UFT AGROTINS,1,,22,PALMAS,TOCANTINS,SEMARH-TO,SEMARH-TO,-10.4086,-48.3633,,RIO SÃO JOÃO,2024-05-01,,Ativo,RHN,0
22351500,RIBEIRÃO TAQUARUÇU GRANDE - PALMAS,1,153.0,22,PALMAS,TOCANTINS,SEMARH-TO,SEMARH-TO,-10.2906,-48.2797,,RIO TAQUARUÇU,2024-10-01,,Ativo,RHN,0
22420000,BARRA CÓRREGO BREJO COMPRIDO,1,,22,PALMAS,TOCANTINS,SEMARH-TO,SEMARH-TO,-10.18,-48.3544,,CÓRREGO BREJO COMPRIDO,2024-03-01,,Ativo,RHN,0
22511000,RIO PROVIDÊNCIA,1,1141.51,22,MIRANORTE,TOCANTINS,SEMARH-TO,SEMARH-TO,-9.5292,-48.6069,370.0,RIO PROVIDÊNCIA,2017-10-01,,Ativo,RHN,0
22670000,RIO NOVO,1,5581.0,22,MATEIROS,TOCANTINS,SEMARH-TO,SEMARH-TO,-10.5486,-46.7589,388.0,RIO NOVO,2017-02-01,,Ativo,RHN,0
22680000,JATOBÁ (FAZENDA BOA NOVA),1,16900.0,22,NOVO ACORDO,TOCANTINS,ANA,SGB-CPRM,-9.9953,-47.4725,200.0,RIO DO SONO,1973-06-01,,Ativo,RHN,0
22735056,PONTE ALTA,1,,22,PONTE ALTA DO TOCAN,TOCANTINS,SEMARH-TO,SEMARH-TO,-10.7406,-47.5361,,RIO PONTE ALTA,,,Ativo,RHN,0
22741000,RIO BALSAS,1,12151.0,22,NOVO ACORDO,TOCANTINS,SEMARH-TO,SEMARH-TO,-9.9919,-47.8197,,RIO DAS BALSAS,2014-10-01,,Ativo,RHN,0
22751000,RIO SONO - APARECIDA DO RIO NEGRO,1,,22,APARECIDA DO RIO NE,TOCANTINS,SEMARH-TO,SEMARH-TO,-9.8092,-47.885,,RIO DO SONO,2024-09-01,,Ativo,RHN,0
22850100,RIO PERDIDA,1,,22,RIO SONO,TOCANTINS,SEMARH-TO,SEMARH-TO,-9.3397,-47.8722,,RIO PERDIDA,2024-11-01,,Ativo,RHN,0
22900000,PORTO REAL,1,44100.0,22,PEDRO AFONSO,TOCANTINS,ANA,SGB-CPRM,-9.3069,-47.9292,200.0,RIO DO SONO,1969-08-01,,Ativo,RHN,0
23100000,TUPIRATINS,1,242000.0,23,TUPIRATINS,TOCANTINS,ANA,SGB-CPRM,-8.3917,-48.1114,125.0,RIO TOCANTINS,1969-08-01,,Ativo,RHN,0
23150010,RIO MANUEL ALVES PEQUENO - ITACAJÁ,1,2800.0,23,ITACAJÁ,TOCANTINS,SEMARH-TO,SEMARH-TO,-8.3917,-47.7661,,RIO MANUEL ALVES PEQUENO,2024-10-01,,Ativo,RHN,0
23219600,RIO MANUEL ALVES GRANDE - CAMPOS LINDOS,1,,23,CAMPOS LINDOS,TOCANTINS,SEMARH-TO,SEMARH-TO,-7.9528,-46.8097,,RIO MANUEL ALVES GRANDE,,,Ativo,RHN,0
23250000,GOIATINS,1,10100.0,23,GOIATINS,TOCANTINS,ANA,SGB-CPRM,-7.7078,-47.3117,189.0,RIO MANUEL ALVES GRANDE,1971-11-01,,Ativo,RHN,0
23700000,DESCARRETO,1,297000.0,23,ITAGUATINS,TOCANTINS,ANA,SGB-CPRM,-5.7894,-47.4689,114.1,RIO TOCANTINS,1973-05-01,,Ativo,RHN,0
23800495,RIO TOCANTINS - SÃO SEBASTIÃO DO TO,1,,23,SÃO SEBASTIÃO DO TO,TOCANTINS,SEMARH-TO,SEMARH-TO,-5.2544,-48.1983,,RIO TOCANTINS,2024-10-01,,Ativo,RHN,0
24500000,TESOURO,1,5280.0,24,TESOURO,MATO GROSSO,ANA,SGB-CPRM,-16.0778,-53.5481,391.0,RIO DAS GARÇAS,1966-07-01,,Ativo,RHN,0
24653000,RIO DAS GARÇAS,1,13400.0,24,BARRA DO GARÇAS,MATO GROSSO,SEMA-MT,SEMA-MT,-15.9022,-52.2772,294.0,CÓRREGO FUNDO,2011-08-01,,Ativo,RHN,0
24700000,BARRA DO GARÇAS,1,36800.0,24,ARAGARÇAS,GOIÁS,ANA,SGB-CPRM,-15.8914,-52.2278,,RIO ARAGUAIA,1967-12-01,,Ativo,RHN,0
24710000,SÍTIO ADRIANA  PONTAL DO ARAGUAIA - RIO DIAMANTINO,1,3666.0,24,PONTAL DO ARAGUAIA,MATO GROSSO,SEMA-MT,SEMA-MT,-16.1031,-52.4833,,RIO DIAMANTINO,2011-08-01,,Ativo,RHN,0
24800000,PERES,1,12000.0,24,ARAGARÇAS,GOIÁS,ANA,SGB-CPRM,-15.8897,-51.8528,,RIO CAIAPÓ,1971-11-01,,Ativo,RHN,0
24850000,ARAGUAIANA,1,50100.0,24,ARAGUAIANA,MATO GROSSO,ANA,SGB-CPRM,-15.7381,-51.8281,278.0,RIO ARAGUAIA,1974-04-01,,Ativo,RHN,0
24950000,MONTES CLAROS DE GOIÁS,1,10100.0,24,MONTES CLAROS DE GO,GOIÁS,ANA,SGB-CPRM,-15.9397,-51.3575,,RIO CLARO,1971-11-01,,Ativo,RHN,0
25090000,FAZENDA PACIÊNCIA,1,103.0,25,GOIÁS,GOIÁS,ANA,SGB-CPRM,-15.9147,-50.1278,,RIO VERMELHO,2002-10-01,,Ativo,RHN,0
25100000,BALNEÁRIO CACHOEIRA GRANDE,1,229.0,25,GOIÁS,GOIÁS,ANA,SGB-CPRM,-15.9222,-50.1717,474.0,RIO VERMELHO,1965-02-01,,Ativo,RHN,0
25130000,TRAVESSÃO,1,5310.0,25,MATRINCHÃ,GOIÁS,ANA,SGB-CPRM,-15.5358,-50.7047,,RIO VERMELHO,1974-06-01,,Ativo,RHN,0
25200000,ARUANÃ,1,76300.0,25,ARUANÃ,GOIÁS,ANA,SGB-CPRM,-14.9128,-51.0814,237.0,RIO ARAGUAIA,1969-10-01,,Ativo,RHN,0
25625000,COCALINHO - RIO ARAGUAIA,1,54300.0,25,COCALINHO,MATO GROSSO,SEMA-MT,SEMA-MT,-14.3978,-50.9947,242.0,RIO ARAGUAIA,,,Ativo,RHN,0
25700000,BANDEIRANTES,1,92300.0,25,NOVA CRIXÁS,GOIÁS,ANA,SGB-CPRM,-13.6897,-50.8,276.2,RIO ARAGUAIA,1974-07-01,,Ativo,RHN,0
26012750,COCALINHO - RIO CRISTALINO,1,2480.0,26,COCALINHO,MATO GROSSO,SEMA-MT,SEMA-MT,-14.085,-51.2939,236.0,RIO CRISTALINO,,,Ativo,RHN,0
26033900,ÁGUAS CLARAS,1,5369.0,26,PRIMAVERA DO LESTE,MATO GROSSO,SEMA-MT,SEMA-MT,-15.305,-54.1864,555.0,RIO DAS MORTES,2012-05-01,,Ativo,RHN,0
26034600,FAZENDA SUSPIRO III,1,2235.0,26,PRIMAVERA DO LESTE,MATO GROSSO,SEMA-MT,SEMA-MT,-15.2227,-53.9667,,RIO CUMBUCO,2011-08-01,,Ativo,RHN,0
26057000,CHÁCARA BOA VISTA,1,2882.0,26,NOVA XAVANTINA,MATO GROSSO,SEMA-MT,SEMA-MT,-14.5342,-52.3314,,CÓRREGO  ARAES (ou AREÕES),2011-08-01,,Ativo,RHN,0
26070000,FAZENDA SÃO JOÃO,1,1339.0,26,RIBEIRÃO CASCALHEIR,MATO GROSSO,SEMA-MT,SEMA-MT,-12.9192,-51.3303,,RIO SÃO JOÃO GRANDE,2011-08-01,,Ativo,RHN,0
26100000,XAVANTINA,1,25300.0,26,NOVA XAVANTINA,MATO GROSSO,ANA,SGB-CPRM,-14.6725,-52.355,266.0,RIO DAS MORTES,1969-01-01,,Ativo,RHN,0
26130000,FAZENDA RIO CORRENTES,1,2812.0,26,ARAGUAIANA,MATO GROSSO,SEMA-MT,SEMA-MT,-15.0892,-52.0492,,RIBEIRÃO ÍNSULA,2011-08-01,,Ativo,RHN,0
26150000,RIO PINDAÍBA,1,9390.0,26,NOVA XAVANTINA,MATO GROSSO,ANA,SGB-CPRM,-14.5997,-51.7197,281.0,RIO PINDAÍBA,1999-10-01,,Ativo,RHN,0
26310000,FAZENDA RANCHO ALTO,1,2225.0,26,BOM JESUS DO ARAGUA,MATO GROSSO,SEMA-MT,SEMA-MT,-12.3317,-51.3331,,RIO MURERE,2011-08-01,,Ativo,RHN,0
26350000,SÃO FÉLIX DO ARAGUAIA,1,194000.0,26,SÃO FÉLIX DO ARAGUA,MATO GROSSO,ANA,SGB-CPRM,-11.6181,-50.6625,226.0,RIO ARAGUAIA,1973-08-01,,Ativo,RHN,0
26500000,PORTO ALEGRE DO NORTE,1,3658.0,26,PORTO ALEGRE DO NOR,MATO GROSSO,SEMA-MT,SEMA-MT,-10.8733,-51.6286,,RIO TAPIRAPE,2011-08-01,,Ativo,RHN,0
26708000,RIO VERDE - RIOZINHO,1,,26,ARAGUAÇU,TOCANTINS,SEMARH-TO,SEMARH-TO,-12.6894,-50.2969,,RIO VERDE,,,Ativo,RHN,0
26708600,RIO VERDE - JAVAÉS,1,,26,SANDOLÂNDIA,TOCANTINS,SEMARH-TO,SEMARH-TO,-12.3975,-50.1444,,RIO JAVAÉS,,,Ativo,RHN,0
26709200,RIO ÁGUA FRIA - DORILÂNDIA,1,,26,SANDOLÂNDIA,TOCANTINS,SEMARH-TO,SEMARH-TO,-12.1964,-50.0344,,RIO ÁGUA FRIA,,,Ativo,RHN,0
26710000,BARREIRA DO PEQUI,1,8150.0,26,SANDOLÂNDIA,TOCANTINS,ANA,SGB-CPRM,-12.0986,-49.9481,108.0,RIO JAVAÉS,1985-04-01,,Ativo,RHN,0
26711000,FAZENDA COBRAPE,1,10500.0,26,FORMOSO DO ARAGUAIA,TOCANTINS,ANA,SGB-CPRM,-11.4644,-50.0078,,RIO JAVAÉS,2014-04-01,,Ativo,RHN,0
26713000,FAZENDA DOIS RIOS,1,13500.0,26,FORMOSO DO ARAGUAIA,TOCANTINS,ANA,SGB-CPRM,-10.8014,-49.9539,,RIO JAVAÉS,2021-06-01,,Ativo,RHN,0
26720001,PRAIA ALTA,1,6610.0,26,SANDOLÂNDIA,TOCANTINS,SEMARH-TO,SEMARH-TO,-12.4178,-49.5892,,RIO FORMOSO,2024-06-01,,Ativo,RHN,0
26721000,DORILÂNDIA,1,7140.0,26,SANDOLÂNDIA,TOCANTINS,SEMARH-TO,SEMARH-TO,-12.2125,-49.6628,,RIO FORMOSO,2016-10-01,,Ativo,RHN,0
26730000,PROJETO RIO FORMOSO,1,9040.0,26,FORMOSO DO ARAGUAIA,TOCANTINS,ANA,SGB-CPRM,-11.8392,-49.7711,192.0,RIO FORMOSO,2003-09-01,,Ativo,RHN,0
26751000,JUSANTE PROJETO RIO FORMOSO,1,20446.0,26,FORMOSO DO ARAGUAIA,TOCANTINS,SEMARH-TO,SEMARH-TO,-11.655,-49.6228,,RIO FORMOSO,2021-06-01,,Ativo,RHN,0
26790001,PONTE RIO DUERÉ,1,,26,ALIANÇA DO TOCANTIN,TOCANTINS,SEMARH-TO,SEMARH-TO,-11.3231,-49.2592,,RIO  DUERÉ,,,Ativo,RHN,0
26792000,FOZ RIO DUERÉ,1,2322.0,26,SANTA RITA DO TOCAN,TOCANTINS,SEMARH-TO,SEMARH-TO,-11.0066,-49.7703,,RIO  DUERÉ,2017-05-01,,Ativo,RHN,0
26795100,RIO URUBU - FAZENDA SÃO BENTO,1,1070.0,26,CRISTALÂNDIA,TOCANTINS,SEMARH-TO,SEMARH-TO,-10.7825,-49.4253,180.0,RIO URUBU GRANDE,2019-12-01,,Ativo,RHN,0
26795110,MONTANTE PONTE RIO PIUM,1,,26,PIUM,TOCANTINS,SEMARH-TO,SEMARH-TO,-10.4739,-49.4931,,RIO PIUM,2024-09-01,,Ativo,RHN,0
26795120,PONTE DO RIO PIUM,1,10103.0,26,CRISTALÂNDIA,TOCANTINS,SEMARH-TO,SEMARH-TO,-10.5036,-49.5942,,RIO PIUM,2023-08-01,,Ativo,RHN,0
26795140,JUSANTE PONTE RIO PIUM,1,5044.0,26,PIUM,TOCANTINS,SEMARH-TO,SEMARH-TO,-10.3903,-49.8167,,RIO PIUM,2023-08-01,,Ativo,RHN,0
26795200,MONTANTE EIXO PONTE RIO URUBU,1,2586.0,26,LAGOA DA CONFUSÃO,TOCANTINS,SEMARH-TO,SEMARH-TO,-10.8581,-49.6031,211.0,RIO URUBU GRANDE,2023-06-01,,Ativo,RHN,0
26795700,RIO URUBU - FAZENDA FORTALEZA,1,2586.0,26,LAGOA DA CONFUSÃO,TOCANTINS,SEMARH-TO,SEMARH-TO,-10.8636,-49.6756,370.0,RIO URUBU GRANDE,2018-07-01,,Ativo,RHN,0
26795800,PONTE RIO XAVANTE,1,,26,FORMOSO DO ARAGUAIA,TOCANTINS,SEMARH-TO,SEMARH-TO,-11.6896,-49.4916,,RIO XAVANTES,2023-10-01,,Ativo,RHN,0
26796000,FOZ RIO XAVANTE,1,2918.0,26,DUERÉ,TOCANTINS,SEMARH-TO,SEMARH-TO,-11.4013,-49.656,,RIO XAVANTES,2017-07-01,,Ativo,RHN,0
26798000,RIO FORMOSO,1,12744.0,26,DUERÉ,TOCANTINS,SEMARH-TO,SEMARH-TO,-11.3811,-49.6819,,RIO FORMOSO,2016-10-01,,Ativo,RHN,0
26798100,RIO FORMOSO LOROTI,1,20446.0,26,DUERÉ,TOCANTINS,SEMARH-TO,SEMARH-TO,-11.2033,-49.7572,,RIO FORMOSO,2021-10-01,,Ativo,RHN,0
26798500,JUSANTE EIXO TARTARUGA RIO URUBU,1,,26,LAGOA DA CONFUSÃO,TOCANTINS,SEMARH-TO,SEMARH-TO,-10.8408,-49.7567,,RIO URUBU GRANDE,2016-08-01,,Ativo,RHN,0
26799000,FOZ RIO FORMOSO,1,20446.0,26,LAGOA DA CONFUSÃO,TOCANTINS,SEMARH-TO,SEMARH-TO,-10.5833,-49.9297,,RIO FORMOSO,2016-08-01,,Ativo,RHN,0
26800000,BARREIRA DA CRUZ,1,35800.0,26,PIUM,TOCANTINS,ANA,SGB-CPRM,-10.5647,-49.9342,220.0,RIO JAVAÉS,1969-09-01,,Ativo,RHN,0
26840000,RIO RIOZINHO,1,,26,PIUM,TOCANTINS,SEMARH-TO,SEMARH-TO,-10.325,-49.6011,,RIO RIOZINHO,,,Ativo,RHN,0
27110000,RIO DO COCO,1,6370.0,27,CASEARA,TOCANTINS,ANA,SGB-CPRM,-9.5003,-49.9831,172.0,RIO DO COCO,1999-08-01,,Ativo,RHN,0
27300900,RIO CAIAPÓ - FAZ GRUPO AGROPAULO,1,4783.16,27,ARAGUACEMA,TOCANTINS,SEMARH-TO,SEMARH-TO,-9.1261,-49.7431,370.0,RIO CAIAPÓ,2018-10-01,,Ativo,RHN,0
27320000,ARAGUACEMA (CHACARA ARAGUAIA),1,319000.0,27,ARAGUACEMA,TOCANTINS,ANA,SGB-CPRM,-8.8033,-49.555,168.0,RIO ARAGUAIA,1974-08-01,,Ativo,RHN,0
27380120,RIO PIRANHAS - DOIS IRMÃOS,1,,27,DOIS IRMÃOS DO TOCA,TOCANTINS,SEMARH-TO,SEMARH-TO,-9.1517,-49.3931,,RIO PIRANHAS,2024-11-01,,Ativo,RHN,0
27380750,RIO PIRANHAS - ARAGUACEMA,1,,27,ARAGUACEMA,TOCANTINS,SEMARH-TO,SEMARH-TO,-8.81,-49.4239,,RIO PIRANHAS,,,Ativo,RHN,0
27400000,RIO BANANAL - GOIANORTE,1,,27,GOIANORTE,TOCANTINS,SEMARH-TO,SEMARH-TO,-8.7481,-48.9081,,RIO BANANAL,2024-11-01,,Ativo,RHN,0
27500000,CONCEIÇÃO DO ARAGUAIA,1,332000.0,27,CONCEIÇÃO DO ARAGUA,PARÁ,ANA,SGB-CPRM,-8.2694,-49.2594,141.9,RIO ARAGUAIA,1969-10-01,,Ativo,RHN,0
27530000,BERNARDO SAYÃO,1,1790.0,27,BERNARDO SAYÃO,TOCANTINS,SEMARH-TO,SEMARH-TO,-7.8758,-48.8775,167.0,RIO DAS CUNHÃS,2000-05-01,,Ativo,RHN,0
27550000,ARAPOEMA,1,1150.0,27,ARAPOEMA,TOCANTINS,ANA,SEMARH-TO,-7.6136,-49.0453,167.0,RIO JENIPAPO,1985-05-01,,Ativo,RHN,0
27600010,PONTE RIO BARREIRAS,1,,27,COUTO DE MAGALHÃES,TOCANTINS,SEMARH-TO,SEMARH-TO,-8.2831,-49.1406,,RIO DAS BARREIRAS,2023-10-01,,Ativo,RHN,0
28150040,MURICILÂNDIA,1,1580.0,28,MURICILÂNDIA,TOCANTINS,SEMARH-TO,SEMARH-TO,-7.145,-48.6136,,RIO MURICIZAL,2023-12-01,,Ativo,RHN,0
28179970,RIO LONTRA MONTANTE DE ARAGUAINA,1,,28,ARAGUAÍNA,TOCANTINS,SEMARH-TO,SEMARH-TO,-7.2708,-48.1606,,RIBEIRÃO  LONTRA,,,Ativo,RHN,0
28200000,PONTE RIO LONTRA,1,1330.0,28,ARAGUAÍNA,TOCANTINS,ANA,SEMARH-TO,-7.2075,-48.2958,194.0,RIBEIRÃO  LONTRA,2000-04-01,2019-11-01,Ativo,RHN,0
28280000,ARAGUANÃ,1,3797.0,28,ARAGUANÃ,TOCANTINS,SEMARH-TO,SEMARH-TO,-6.56557,-48.6355,,RIBEIRÃO  LONTRA,2014-09-01,,Ativo,RHN,0
28300000,XAMBIOÁ,1,377000.0,28,XAMBIOÁ,TOCANTINS,ANA,SGB-CPRM,-6.4097,-48.5422,118.0,RIO ARAGUAIA,1969-08-01,,Ativo,RHN,0
28318000,RIO CORDA - RIACHINHO,1,,28,RIACHINHO,TOCANTINS,SEMARH-TO,SEMARH-TO,-6.5178,-48.1514,,RIO CORDA,2018-07-01,,Ativo,RHN,0
28321000,RIO CORDA - XAMBIOÁ,1,3510.0,28,XAMBIOÁ,TOCANTINS,SEMARH-TO,SEMARH-TO,-6.3567,-48.3519,,RIO CORDA,,,Ativo,RHN,0
28840009,RIO PIRANHAS - SÃO BENTO DO TOCANTINS,1,,28,SÃO BENTO DO TOCANT,TOCANTINS,SEMARH-TO,SEMARH-TO,-6.0442,-48.1983,,RIO PIRANHAS,2024-11-01,,Ativo,RHN,0
28844995,RIO SÃO MARTINHO,1,,28,ARAGUATINS,TOCANTINS,SEMARH-TO,SEMARH-TO,-5.78905,-48.1781,,RIO SÃO MARTINHO,2024-10-01,,Ativo,RHN,0
28850000,ARAGUATINS,1,388000.0,28,ARAGUATINS,TOCANTINS,ANA,SGB-CPRM,-5.6514,-48.1325,98.0,RIO ARAGUAIA,1974-08-01,,Ativo,RHN,0
29050000,MARABÁ,1,703000.0,29,MARABÁ,PARÁ,ANA,SGB-CPRM,-5.3386,-49.1244,69.77,RIO TOCANTINS,1971-10-01,,Ativo,RHN,0
29063500,FAZENDA ABADIA,1,,29,MARABÁ,PARÁ,VALE-ITV,VALE-ITV,-5.5775,-49.5472,134.0,RIO ITACAIÚNAS,2014-12-01,,Ativo,RHN,0
29070100,PARAUAPEBAS,1,6850.0,29,PARAUAPEBAS,PARÁ,ANA,SGB-CPRM,-6.0914,-49.9044,,RIO PARAUAPEBAS,2008-09-01,,Ativo,RHN,0
29071100,ELDORADO,1,,29,ELDORADO DOS CARAJÁ,PARÁ,VALE-ITV,VALE-ITV,-6.0908,-49.3594,127.0,RIO VERMELHO,2014-12-01,,Manutenção,RHN,0
29100000,FAZENDA ALEGRIA,1,37500.0,29,MARABÁ,PARÁ,ANA,SGB-CPRM,-5.4867,-49.2214,,RIO ITACAIÚNAS,1969-07-01,,Ativo,RHN,0
29200000,ITUPIRANGA,1,746000.0,29,ITUPIRANGA,PARÁ,ANA,SGB-CPRM,-5.1281,-49.3242,65.6,RIO TOCANTINS,1969-07-01,,Ativo,RHN,0
30050000,ESTIRÃO DO CRICOU,1,22200.0,30,OIAPOQUE,AMAPÁ,ANA,SGB-CPRM,3.7217,-51.9308,,RIO OIAPOQUE,1982-12-01,2013-12-01,Ativo,RHN,0
30055000,PONTE CASSIPORE,1,3330.0,30,OIAPOQUE,AMAPÁ,ANA,SGB-CPRM,2.9567,-51.4219,,RIO CACIPÓRE,1997-06-01,,Ativo,RHN,0
30072150,CALÇOENE,1,2635.0,30,CALÇOENE,AMAPÁ,ANA,SGB-CPRM,2.4942,-50.9533,,RIO CALÇOENE,2022-10-01,,Ativo,RHN,0
30075000,TARTARUGAL GRANDE,1,1810.0,30,TARTARUGALZINHO,AMAPÁ,ANA,SGB-CPRM,1.3978,-50.925,,RIO TARTARUGAL GRANDE,1997-03-01,,Ativo,RHN,0
30080000,CAPIVARA,1,10600.0,30,PORTO GRANDE,AMAPÁ,ANA,SGB-CPRM,0.9861,-51.7064,,RIO ARAGUARI,1981-03-01,,Ativo,RHN,0
30300000,SERRA DO NAVIO,1,10800.0,30,SERRA DO NAVIO,AMAPÁ,ANA,SGB-CPRM,0.9006,-52.0156,,RIO AMAPARI,1972-06-01,,Ativo,RHN,0
31645000,CAPTAÇÃO D'ÁGUA DA COSANPA,1,49400.0,31,BELÉM,PARÁ,ANA,SGB-CPRM,-1.455,-48.4017,,RIO GUAMÁ,,,Ativo,RHN,0
31680000,FAZENDA MARINGA,1,25900.0,31,TOMÉ-AÇU,PARÁ,ANA,SGB-CPRM,-3.1372,-48.0847,,RIO CAPIM,1982-10-01,,Ativo,RHN,0
31700000,BADAJÓS,1,32200.0,31,SÃO DOMINGOS DO CAP,PARÁ,ANA,SGB-CPRM,-2.5128,-47.7681,,RIO CAPIM,1969-10-01,,Ativo,RHN,0
32540000,FAZENDA RURAL ZEBU,1,16300.0,32,PARAGOMINAS,PARÁ,ANA,SGB-CPRM,-3.3197,-46.8456,,RIO GURUPI,1980-12-01,,Ativo,RHN,0
32550000,CAFEZAL,1,4690.0,32,PARAGOMINAS,PARÁ,ANA,SGB-CPRM,-2.7717,-46.8028,,RIO URAIM,1985-01-01,,Ativo,RHN,0
32620000,ALTO BONITO,1,32900.0,32,VISEU,PARÁ,ANA,SGB-CPRM,-1.8006,-46.3161,,RIO GURUPI,1974-04-01,,Ativo,RHN,0
33250000,BARRA DO CORDA,1,13200.0,33,BARRA DO CORDA,MARANHÃO,ANA,SGB-CPRM,-5.5006,-45.2436,71.0,RIO MEARIM,1963-06-01,,Ativo,RHN,0
33260010,SANTA VITÓRIA,1,15400.0,33,BARRA DO CORDA,MARANHÃO,SEMA-MA,SEMA-MA,-5.1019,-44.9614,60.0,RIO MEARIM,,,Ativo,RHN,0
33273010,JOSELÂNDIA,1,,33,JOSELÂNDIA,MARANHÃO,SEMA-MA,SEMA-MA,-4.9258,-44.6181,,RIO DAS FLORES,,,Ativo,RHN,0
33281000,PEDREIRAS II,1,24000.0,33,PEDREIRAS,MARANHÃO,ANA,SGB-CPRM,-4.57,-44.6106,22.0,RIO MEARIM,1978-02-01,,Ativo,RHN,0
33286000,SÃO LUIZ GONZAGA,1,25200.0,33,SÃO LUÍS GONZAGA DO,MARANHÃO,ANA,SGB-CPRM,-4.37,-44.6758,18.0,RIO MEARIM,1989-08-01,,Ativo,RHN,0
33290000,BACABAL,1,25500.0,33,BACABAL,MARANHÃO,ANA,SGB-CPRM,-4.2194,-44.7653,9.0,RIO MEARIM,1975-09-01,,Ativo,RHN,0
33321000,GRAJAU II,1,4510.0,33,GRAJAU,MARANHÃO,ANA,SGB-CPRM,-5.8222,-46.1422,148.0,RIO GRAJAÚ,1978-07-01,,Ativo,RHN,0
33380010,ARATOÍ GRANDE,1,20300.0,33,BELA VISTA DO MARAN,MARANHÃO,SEMA-MA,SEMA-MA,-3.7722,-45.2181,,RIO GRAJAÚ,,,Ativo,RHN,0
33420000,MIRADOR,1,6060.0,33,MIRADOR,MARANHÃO,ANA,SGB-CPRM,-6.3708,-44.3603,174.0,RIO ITAPECURU,1968-01-01,,Ativo,RHN,0
33480000,COLINAS,1,15000.0,33,COLINAS,MARANHÃO,ANA,SGB-CPRM,-6.0208,-44.2486,122.0,RIO ITAPECURU,1968-06-01,,Ativo,RHN,0
33530000,MONTEVIDÉU,1,27300.0,33,GOVERNADOR EUGENIO,MARANHÃO,ANA,SGB-CPRM,-5.3372,-43.8844,93.0,RIO ITAPECURU,1975-01-01,,Ativo,RHN,0
33550000,CAXIAS,1,32700.0,33,CAXIAS,MARANHÃO,ANA,SGB-CPRM,-4.865,-43.3675,49.0,RIO ITAPECURU,1963-04-01,,Ativo,RHN,0
33590000,CODÓ,1,37200.0,33,CODÓ,MARANHÃO,ANA,SGB-CPRM,-4.4583,-43.875,35.0,RIO ITAPECURU,1963-04-01,,Ativo,RHN,0
33630000,COROATÁ,1,43800.0,33,COROATA,MARANHÃO,ANA,SGB-CPRM,-4.1258,-44.1297,34.0,RIO ITAPECURU,1974-12-01,,Ativo,RHN,0
33680000,CANTANHEDE,1,49900.0,33,CANTANHEDE,MARANHÃO,ANA,SGB-CPRM,-3.6278,-44.3792,15.0,RIO ITAPECURU,1968-06-01,,Ativo,RHN,0
33690100,ITAPECURU-MIRIM,1,51129.0,33,ITAPECURU MIRIM,MARANHÃO,SGB-CPRM,SGB-CPRM,-3.3922,-44.3619,15.0,RIO ITAPECURU,2018-11-01,,Ativo,RHN,0
33730000,MUNIM,1,4210.0,33,VARGEM GRANDE,MARANHÃO,ANA,SGB-CPRM,-3.5775,-43.7028,7.0,RIO MUNIM,1971-12-01,,Ativo,RHN,0
33760005,SÃO BENEDITO DO RIO PRETO,1,3990.0,33,SÃO BENEDITO DO RIO,MARANHÃO,SEMA-MA,SEMA-MA,-3.3353,-43.5264,30.0,RIO PRETO,2013-08-01,,Ativo,RHN,0
33770001,VARGEM GRANDE,1,,33,VARGEM GRANDE,MARANHÃO,SEMA-MA,SEMA-MA,-3.5528,-43.8728,,RIO IGUARA,2013-08-01,,Ativo,RHN,0
34020000,ALTO PARNAÍBA,1,12900.0,34,ALTO PARNAÍBA,MARANHÃO,ANA,SGB-CPRM,-9.1131,-45.9261,266.0,RIO PARNAÍBA,1965-12-01,,Ativo,RHN,0
34040500,FAZENDA PARACATI II,1,25500.0,34,TASSO FRAGOSO,MARANHÃO,ANA,SGB-CPRM,-8.2708,-45.6683,,RIO PARNAÍBA,1996-11-01,,Ativo,RHN,0
34060000,RIBEIRO GONÇALVES,1,31300.0,34,RIBEIRO GONÇALVES,PIAUÍ,ANA,SGB-CPRM,-7.5667,-45.2544,197.0,RIO PARNAÍBA,1973-01-01,,Ativo,RHN,0
34070000,SÍTIO DO VELHO,1,35300.0,34,URUÇUÍ,PIAUÍ,ANA,SGB-CPRM,-7.3808,-44.8267,210.0,RIO PARNAÍBA,1968-07-01,,Ativo,RHN,0
34080000,FORMOSA DO URUÇUÍ PRETO,1,4820.0,34,BAIXA GRANDE DO RIB,PIAUÍ,ANA,SGB-CPRM,-8.6725,-44.8856,271.0,RIO URUÇUÍ PRETO,2012-08-01,,Ativo,RHN,0
34090000,FAZENDA BANDEIRA,1,15600.0,34,URUÇUÍ,PIAUÍ,ANA,SGB-CPRM,-7.3908,-44.6142,160.0,RIO URUÇUÍ PRETO,1965-11-01,,Ativo,RHN,0
34130000,BALSAS,1,9040.0,34,BALSAS,MARANHÃO,ANA,SGB-CPRM,-7.5344,-46.0358,263.0,RIO DAS BALSAS,1973-01-01,,Ativo,RHN,0
34170000,SÃO FÉLIX DE BALSAS,1,24700.0,34,SÃO FÉLIX DE BALSAS,MARANHÃO,ANA,SGB-CPRM,-7.0819,-44.8139,177.0,RIO DAS BALSAS,1963-06-01,,Ativo,RHN,0
34219100,GUADALUPE,1,85000.0,34,GUADALUPE,PIAUÍ,SGB-CPRM,SGB-CPRM,-6.7722,-43.5469,113.0,RIO PARNAÍBA,,,Ativo,RHN,0
34233000,REDENÇÃO DO GURGUÉIA,1,22700.0,34,REDENÇÃO DO GURGUÉI,PIAUÍ,ANA,SGB-CPRM,-9.5397,-44.6014,270.0,RIO GURGUÉIA,2012-08-01,,Ativo,RHN,0
34251000,CRISTINO CASTRO II,1,31000.0,34,CRISTINO CASTRO,PIAUÍ,ANA,SGB-CPRM,-8.7925,-44.2058,220.0,RIO GURGUÉIA,1975-04-01,,Ativo,RHN,0
34270000,BARRA DO LANCE,1,47000.0,34,JERUMENHA,PIAUÍ,ANA,SGB-CPRM,-7.2475,-43.6433,150.0,RIO GURGUÉIA,1967-02-01,,Ativo,RHN,0
34311000,BARÃO DE GRAJAÚ,1,140000.0,34,BARÃO DE GRAJAÚ,MARANHÃO,ANA,SGB-CPRM,-6.7614,-43.0278,134.0,RIO PARNAÍBA,1983-05-01,,Ativo,RHN,0
34340000,PONTE DA ITAUEIRA,1,9910.0,34,FLORIANO,PIAUÍ,ANA,SGB-CPRM,-6.8139,-42.9667,198.0,RIO ITAUEIRA,2004-08-01,,Ativo,RHN,0
34471000,SANTA CRUZ DO PIAUÍ II,1,17700.0,34,SANTA CRUZ DO PIAUÍ,PIAUÍ,ANA,SGB-CPRM,-7.1894,-41.7703,166.0,RIO ITAIM,1996-07-01,,Ativo,RHN,0
34479000,FAZENDA TALHADA II,1,28800.0,34,OEIRAS,PIAUÍ,ANA,SGB-CPRM,-6.9861,-42.0883,142.0,RIO CANINDÉ,2015-08-01,,Ativo,RHN,0
34564000,SÃO JOÃO DO PIAUÍ,1,15600.0,34,SÃO JOÃO DO PIAUÍ,PIAUÍ,ANA,SGB-CPRM,-8.355,-42.2453,213.0,RIO PIAUÍ,2002-12-01,,Ativo,RHN,0
34600000,FRANCISCO AYRES,1,73700.0,34,FRANCISCO AYRES,PIAUÍ,ANA,SGB-CPRM,-6.6222,-42.6969,95.0,RIO CANINDÉ,1983-03-01,,Ativo,RHN,0
34660000,FAZENDA VENEZA,1,235000.0,34,PALMEIRAIS,PIAUÍ,ANA,SGB-CPRM,-5.5719,-43.0242,104.0,RIO PARNAÍBA,1955-05-01,,Ativo,RHN,0
34690000,TERESINA - CHESF,1,237000.0,34,TERESINA,PIAUÍ,ANA,SGB-CPRM,-5.135,-42.8111,49.0,RIO PARNAÍBA,1963-07-01,,Ativo,RHN,0
34730000,CROATÁ,1,1030.0,34,CROATÁ,CEARÁ,ANA,SGB-CPRM,-4.4156,-40.9108,580.0,RIO MACAMBIRA,1962-02-01,,Ativo,RHN,0
34742000,BEBEDOURO,1,11400.0,34,BURITI DOS MONTES,PIAUÍ,ANA,SGB-CPRM,-5.0586,-41.1567,,RIO POTI,2014-05-01,,Ativo,RHN,0
34745010,CASTELO - MONTANTE,1,18676.0,34,JUAZEIRO DO PIAUÍ,PIAUÍ,ANA,SEMARH-PI,-5.0667,-41.5833,,RIO POTI,2020-09-01,,Ativo,RHN,0
34750000,FAZENDA BOA ESPERANÇA,1,19200.0,34,CASTELO DO PIAUÍ,PIAUÍ,ANA,SGB-CPRM,-5.2231,-41.7375,180.0,RIO POTI,1964-12-01,,Ativo,RHN,0
34770000,PRATA DO PIAUÍ,1,43400.0,34,PRATA DO PIAUÍ,PIAUÍ,ANA,SGB-CPRM,-5.6664,-42.2136,80.0,RIO POTI,1973-01-01,,Ativo,RHN,0
34789000,FAZENDA CANTINHO II,1,51400.0,34,TERESINA,PIAUÍ,ANA,SGB-CPRM,-5.1997,-42.6956,60.0,RIO POTI,1988-08-01,,Ativo,RHN,0
34820000,COELHO NETO,1,294000.0,34,COELHO NETO,MARANHÃO,ANA,SGB-CPRM,-4.2881,-42.9856,42.0,RIO PARNAÍBA,1999-10-01,,Ativo,RHN,0
34879500,LUZILÂNDIA,1,298000.0,34,LUZILÂNDIA,PIAUÍ,ANA,SGB-CPRM,-3.4539,-42.37,22.0,RIO PARNAÍBA,1982-01-01,,Ativo,RHN,0
34930000,FAZENDA ALEGRIA,1,4910.0,34,BARRAS,PIAUÍ,ANA,SGB-CPRM,-4.4097,-42.1814,53.0,RIO LONGÁ,1964-01-01,,Ativo,RHN,0
34933000,PEDRA BRANCA,1,1760.0,34,BARRAS,PIAUÍ,ANA,SGB-CPRM,-4.3931,-42.4072,,RIO MARATÃ,2012-07-01,,Ativo,RHN,0
34936000,PEDRINHAS,1,2900.0,34,BARRAS,PIAUÍ,ANA,SGB-CPRM,-4.2378,-42.3053,102.0,RIO MARATÃ,2012-07-01,,Ativo,RHN,0
34940000,ESPERANTINA,1,11200.0,34,ESPERANTINA,PIAUÍ,ANA,SGB-CPRM,-3.9028,-42.2297,56.0,RIO LONGÁ,1963-08-01,,Ativo,RHN,0
34976000,PIRACURUCA,1,5190.0,34,PIRACURUCA,PIAUÍ,ANA,SGB-CPRM,-3.9372,-41.7169,76.0,RIO PIRACURUCA,2000-02-01,,Ativo,RHN,0
34977005,PIRACURUCA - JUSANTE,1,5043.0,34,PIRACURUCA,PIAUÍ,ANA,SEMARH-PI,-3.9594,-41.6739,64.0,RIO PIRACURUCA,2020-09-01,,Ativo,RHN,0
34979000,SANGRADOURO,1,1020.0,34,SÃO JOÃO DA FRONTEI,PIAUÍ,ANA,SGB-CPRM,-4.0394,-41.2675,,RIACHO / RIO JABURU,2014-12-01,,Ativo,RHN,0
34980000,TINGUIS,1,21800.0,34,SÃO JOSÉ DO DIVINO,PIAUÍ,ANA,SGB-CPRM,-3.7239,-41.9742,48.0,RIO LONGÁ,1973-01-01,,Ativo,RHN,0
35050000,CHAVAL RETIRO,1,1000.0,35,CHAVAL,CEARÁ,ANA,SGB-CPRM,-3.0786,-41.255,,RIO UBATUBA,2000-02-01,,Ativo,RHN,0
35051000,AÇUDE ITAÚNA,1,766.0,35,CHAVAL,CEARÁ,COGERH-CE,COGERH-CE,-3.1536,-41.1644,40.0,RIACHO TIMONHA,2001-05-01,,Ativo,RHN,0
35110100,SENADOR FREITAS NETO,1,843.0,35,LUÍS CORREIA,PIAUÍ,ANA,SEMARH-PI,-3.0039,-41.4489,95.0,RIO JENIPAPO,2020-09-01,,Ativo,RHN,0
35125000,MORAÚJO,1,1500.0,35,MORAÚJO,CEARÁ,ANA,SGB-CPRM,-3.4647,-40.6853,74.0,RIO COREAU,1979-02-01,,Ativo,RHN,0
35235000,VÁRZEA DO GROSSO,1,3640.0,35,VARJOTA,CEARÁ,ANA,SGB-CPRM,-4.1442,-40.43,180.0,RIO ACARAÚ,1970-02-01,,Ativo,RHN,0
35240001,TRAPIÁ,1,1530.0,35,SANTA QUITÉRIA,CEARÁ,COGERH-CE,COGERH-CE,-4.195,-40.3178,90.0,RIACHO DOS MACACOS,,,Ativo,RHN,0
35249000,AÇUDE EDSON QUEIROZ,1,1770.0,35,SANTA QUITÉRIA,CEARÁ,COGERH-CE,COGERH-CE,-4.215,-40.0667,180.0,RIO GROAIRAS,1989-01-01,,Ativo,RHN,0
35255000,SIARÃO,1,6880.0,35,GROAIRAS,CEARÁ,ANA,SGB-CPRM,-3.9039,-40.4053,,RIO ACARAÚ,2013-03-01,,Ativo,RHN,0
35260000,GROAIRAS,1,2800.0,35,GROAIRAS,CEARÁ,ANA,SGB-CPRM,-3.9092,-40.3797,80.0,RIO GROAIRAS,1968-02-01,,Ativo,RHN,0
35275000,SOBRAL,1,11300.0,35,SOBRAL,CEARÁ,ANA,SGB-CPRM,-3.6883,-40.3389,75.0,RIO ACARAÚ,1962-02-01,,Ativo,RHN,0
35283000,SANTANA DO ACARAÚ,1,13000.0,35,SANTANA DO ACARAÚ,CEARÁ,ANA,SGB-CPRM,-3.4553,-40.2128,,RIO ACARAÚ,2005-08-01,,Ativo,RHN,0
35300100,BARRAGEM SANTA ROSA,1,,35,MARCO,CEARÁ,COGERH-CE,COGERH-CE,-3.1122,-40.1253,,RIO ACARAÚ,,,Ativo,RHN,0
36045000,MALHADA,1,3460.0,36,SABOEIRO,CEARÁ,ANA,SGB-CPRM,-6.6461,-39.9617,320.0,RIACHO CONCEIÇÃO,1979-02-01,,Ativo,RHN,0
36070000,SÍTIO PATOS,1,13700.0,36,JUCÁS,CEARÁ,ANA,SGB-CPRM,-6.5206,-39.6386,,RIO JAGUARIBE,2000-01-01,,Ativo,RHN,0
36125000,SÍTIO POÇO DANTAS,1,3530.0,36,CARIÚS,CEARÁ,ANA,SGB-CPRM,-6.5578,-39.5086,230.0,RIO DOS BASTIÕES,1965-01-01,,Ativo,RHN,0
36130000,CARIÚS,1,6000.0,36,CARIÚS,CEARÁ,ANA,SGB-CPRM,-6.5344,-39.4997,230.0,RIO CARIUS,1963-03-01,,Ativo,RHN,0
36160000,IGUATU,1,20700.0,36,IGUATU,CEARÁ,ANA,SGB-CPRM,-6.3744,-39.2933,213.0,RIO JAGUARIBE,1912-01-01,,Ativo,RHN,0
36210000,SÍTIO LAPINHA,1,1689.0,36,MISSÃO VELHA,CEARÁ,ANA,SGB-CPRM,-7.2222,-39.1439,350.0,RIO SALGADO,1965-01-01,,Ativo,RHN,0
36211000,JATI JUSANTE - CANAL 1225,1,195.7,36,JATI,CEARÁ,ANA,SGB-CPRM,-7.7022,-38.9994,,RIACHO JUREMA,,,Ativo,RHN,0
36260000,SÍTIO SANTA CRUZ,1,6940.0,36,AURORA,CEARÁ,ANA,SGB-CPRM,-7.0142,-38.9581,,RIO SALGADO,2000-01-01,,Ativo,RHN,0
36270000,LAVRAS DA MANGABEIRA,1,8840.0,36,LAVRAS DA MANGABEIR,CEARÁ,ANA,SGB-CPRM,-6.75,-38.9667,247.0,RIO SALGADO,1960-12-01,,Ativo,RHN,0
36290000,ICÓ,1,12400.0,36,ICÓ,CEARÁ,ANA,SGB-CPRM,-6.4067,-38.8672,160.0,RIO SALGADO,1957-01-01,,Ativo,RHN,0
36320000,JAGUARIBE,1,39600.0,36,JAGUARIBE,CEARÁ,ANA,SGB-CPRM,-5.8997,-38.6331,125.0,RIO JAGUARIBE,1977-10-01,,Ativo,RHN,0
36360000,AÇUDE CASTANHÃO,1,44900.0,36,ALTO SANTO,CEARÁ,COGERH-CE,COGERH-CE,-5.4925,-38.4506,63.0,RIO JAGUARIBE,2008-11-01,2012-06-01,Ativo,RHN,0
36390000,PEIXE GORDO,1,47800.0,36,TABULEIRO DO NORTE,CEARÁ,ANA,SGB-CPRM,-5.2275,-38.1978,50.0,RIO JAGUARIBE,1960-12-01,,Ativo,RHN,0
36470000,SENADOR POMPEU,1,4530.0,36,SENADOR POMPEU,CEARÁ,ANA,SGB-CPRM,-5.5958,-39.3811,173.0,RIO BANABUIU,1963-03-01,,Ativo,RHN,0
36520000,QUIXERAMOBIM,1,7050.0,36,QUIXERAMOBIM,CEARÁ,ANA,SGB-CPRM,-5.2014,-39.2922,187.0,RIO QUIXERAMOBIM,1963-03-01,,Ativo,RHN,0
36534000,AÇUDE BANABUIU,1,14300.0,36,BANABUIU,CEARÁ,COGERH-CE,COGERH-CE,-5.3306,-38.9253,120.0,RIO BANABUIU,1979-01-01,,Ativo,RHN,0
36580000,MORADA NOVA II,1,17300.0,36,MORADA NOVA,CEARÁ,ANA,SGB-CPRM,-5.1219,-38.4464,50.0,RIO BANABUIU,1973-03-01,,Ativo,RHN,0
36615000,QUIXERÉ,1,48900.0,36,QUIXERÉ,CEARÁ,ANA,SGB-CPRM,-5.0839,-37.9983,,RIO JAGUARIBE,2005-09-01,,Ativo,RHN,0
36628000,PASSAGEM RUSSAS,1,71000.0,36,RUSSAS,CEARÁ,ANA,SGB-CPRM,-4.9344,-37.8878,,RIO JAGUARIBE,2013-04-01,,Ativo,RHN,0
36700000,ITAIÇABA,1,,36,ITAIÇABA,CEARÁ,SEMACE-CE,SEMACE-CE,-4.6722,-37.8181,,RIO JAGUARIBE,,,Ativo,RHN,0
37210500,CAIÇARA JUSANTE - CANAL 1238,1,12.01,37,CAJAZEIRAS,PARAÍBA,ANA,SGB-CPRM,-7.0392,-38.5989,,RIACHO DA CAIÇARA,,,Ativo,RHN,0
37320000,POMBINHO,1,1920.0,37,DIAMANTE,PARAÍBA,ANA,SGB-CPRM,-7.4364,-38.3189,,RIO PIANCÓ,2002-12-01,,Ativo,RHN,0
37340000,PIANCÓ,1,4560.0,37,PIANCÓ,PARAÍBA,ANA,SGB-CPRM,-7.2044,-37.9281,249.0,RIO PIANCÓ,1962-05-01,,Ativo,RHN,0
37410000,SÍTIO VASSOURAS,1,15200.0,37,POMBAL,PARAÍBA,ANA,SGB-CPRM,-6.7258,-37.7975,175.0,RIO PIRANHAS-AÇU,1962-05-01,,Ativo,RHN,0
37563000,AÇUDE ITANS,1,1180.0,37,CAICÓ,RIO GRANDE DO NORTE,IGARN-RN,IGARN-RN,-6.4942,-37.0686,,RIO SÃO JOSÉ,2002-01-01,,Ativo,RHN,0
37564110,PASSAGEM DAS TRAÍRAS - JUSANTE,1,6118.0,37,JARDIM DO SERIDÓ,RIO GRANDE DO NORTE,ANA,IGARN-RN,-6.515,-36.9436,188.0,RIO SERIDÓ,2020-09-01,,Ativo,RHN,0
37604000,JUCURUTU,1,34300.0,37,JUCURUTU,RIO GRANDE DO NORTE,ANA,SGB-CPRM,-6.0342,-37.0156,,RIO PIRANHAS-AÇU,2009-10-01,,Ativo,RHN,0
37610110,ARG - JUSANTE,1,37035.0,37,AÇÚ,RIO GRANDE DO NORTE,ANA,IGARN-RN,-5.6667,-36.8789,43.0,RIO PIRANHAS-AÇU,2020-09-01,,Ativo,RHN,0
37714910,IPANGUAÇU,1,38163.0,37,IPANGUAÇU,RIO GRANDE DO NORTE,ANA,SGB-CPRM,-5.5031,-36.8881,,RIO PIRANHAS-AÇU,2023-04-01,,Ativo,RHN,0
37730000,DIBA - SÍTIO CANTO ALEGRE,1,40100.0,37,AFONSO BEZERRA,RIO GRANDE DO NORTE,ANA,SGB-CPRM,-5.4133,-36.8444,,RIO PIRANHAS-AÇU,2004-08-01,,Ativo,RHN,0
38811000,PISF MONTEIRO,1,,38,MONTEIRO,PARAÍBA,AESA-PB,AESA-PB,-7.8872,-37.1086,540.4,RIO MONTEIRO,2017-03-01,2017-03-01,Ativo,RHN,0
38811500,PISF SÍTIO QUEIMAÇÃO,1,,38,CAMALAÚ,PARAÍBA,AESA-PB,AESA-PB,-7.8772,-36.9278,,RIO PARAÍBA,2017-02-01,2017-02-01,Ativo,RHN,0
38812000,SÍTIO CONCEIÇÃO,1,1240.0,38,SUMÉ,PARAÍBA,ANA,AESA-PB,-7.7872,-36.7342,,RIO MONTEIRO,1999-11-01,1999-11-01,Ativo,RHN,0
38820100,SUMÉ - JUSANTE,1,770.0,38,SUMÉ,PARAÍBA,ANA,AESA-PB,-7.6711,-36.8975,517.0,RIO SUCURU,2020-09-01,,Ativo,RHN,0
38830000,CARAÚBAS,1,5030.0,38,CARAÚBAS,PARAÍBA,ANA,AESA-PB,-7.7211,-36.5053,493.0,RIO PARAÍBA,1970-01-01,1970-01-01,Ativo,RHN,0
38855020,PISF SÍTIO RIACHO FUNDO,1,,38,BARRA DE SÃO MIGUEL,PARAÍBA,AESA-PB,AESA-PB,-7.60372,-36.306,382.0,RIO PARAÍBA,2017-09-01,2017-09-01,Ativo,RHN,0
39029950,CANAL DO GOIANA,1,,39,GOIANA,PERNAMBUCO,APAC-PE,APAC-PE,-7.5506,-34.9983,,RIO GOIANA,2014-12-01,2023-12-01,Ativo,RHN,0
39081250,TIMBAÚBA,1,276.0,39,TIMBAÚBA,PERNAMBUCO,ANA,SGB-CPRM,-7.5128,-35.3269,111.0,RIO CAPIBERIBE MIRIM,2012-05-01,,Ativo,RHN,0
39082700,VICÊNCIA MONTANTE,1,150.0,39,VICÊNCIA,PERNAMBUCO,ANA,SGB-CPRM,-7.6569,-35.3711,,RIO SIRIJI,2023-08-01,,Ativo,RHN,0
39084000,CARICÉ,1,1320.0,39,ITAMBÉ (EX-TAMBÉ),PERNAMBUCO,ANA,SGB-CPRM,-7.5428,-35.0686,0.0,RIO CAPIBERIBE MIRIM,1999-10-01,,Ativo,RHN,0
39084005,URUCUBA (LIMOEIRO),1,,39,LIMOEIRO,PERNAMBUCO,APAC-PE,APAC-PE,-7.8214,-35.4142,126.0,RIO TRACUNHAÉM,2025-04-01,,Ativo,RHN,0
39084015,NAZARÉ DA MATA,1,692.0,39,NAZARÉ DA MATA,PERNAMBUCO,APAC-PE,APAC-PE,-7.7542,-35.2331,75.0,RIO TRACUNHAÉM,,,Ativo,RHN,0
39100000,SANTA CRUZ DO CAPIBARIBE,1,1560.0,39,SANTA CRUZ DO CAPIB,PERNAMBUCO,ANA,SGB-CPRM,-7.9619,-36.2022,0.0,RIO CAPIBARIBE,1986-04-01,,Ativo,RHN,0
39130010,TORITAMA,1,2450.0,39,TORITAMA,PERNAMBUCO,ANA,APAC-PE,-8.0128,-36.0578,376.0,RIO CAPIBARIBE,,,Ativo,RHN,0
39145010,LIMOEIRO,1,5580.0,39,LIMOEIRO,PERNAMBUCO,ANA,APAC-PE,-7.8789,-35.4519,134.0,RIO CAPIBARIBE,,,Ativo,RHN,0
39150010,PAUDALHO,1,6190.0,39,PAUDALHO,PERNAMBUCO,APAC-PE,APAC-PE,-7.8942,-35.1733,64.0,RIO CAPIBARIBE,,,Ativo,RHN,0
39160000,BARRAGEM GLÓRIA DO GOITA,1,400.0,39,PAUDALHO,PERNAMBUCO,ANA,APAC-PE,-7.9681,-35.1158,78.4,RIO GOITA,1986-08-01,,Ativo,RHN,0
39167000,VITÓRIA DE SANTO ANTÃO MONTANTE,1,167.0,39,VITÓRIA DE SANTO AN,PERNAMBUCO,ANA,SGB-CPRM,-8.12,-35.3211,,RIO TAPACURÁ,2023-05-01,,Ativo,RHN,0
39187800,SÃO LOURENÇO DA MATA II,1,7290.0,39,SÃO LOURENÇO DA MAT,PERNAMBUCO,ANA,SGB-CPRM,-7.9986,-35.0392,32.0,RIO CAPIBARIBE,1989-05-01,,Ativo,RHN,0
39339950,AÇUDE ENG. SEVERINO GUERRA,1,28.0,39,BELO JARDIM,PERNAMBUCO,CPRH-PE,APAC-PE,-8.3103,-36.4258,,RIO BITURY,2004-01-01,,Ativo,RHN,0
39340010,CARUARU,1,2000.0,39,CARUARU,PERNAMBUCO,APAC-PE,APAC-PE,-8.3028,-36.3028,,RIO IPOJUCA,,,Ativo,RHN,0
39340200,AÇUDE BELO JARDIM,1,126.0,39,BELO JARDIM,PERNAMBUCO,CPRH-PE,APAC-PE,-8.3458,-36.3747,,RIO IPOJUCA,2000-01-01,,Ativo,RHN,0
39345010,GRAVATÁ,1,2650.0,39,GRAVATÁ,PERNAMBUCO,APAC-PE,APAC-PE,-8.2128,-35.6042,,RIO IPOJUCA,,,Ativo,RHN,0
39359600,PRIMAVERA,1,,39,PRIMAVERA,PERNAMBUCO,APAC-PE,APAC-PE,-8.3328,-35.3508,,RIO IPOJUCA,2023-04-01,2023-12-01,Ativo,RHN,0
39370100,ENGENHO MARANHÃO,1,3310.0,39,IPOJUCA,PERNAMBUCO,ANA,SGB-CPRM,-8.3697,-35.1422,,RIO IPOJUCA,2002-12-01,,Ativo,RHN,0
39431000,AMARAGI,1,139.0,39,AMARAGI,PERNAMBUCO,ANA,SGB-CPRM,-8.3803,-35.4553,,RIO AMARAGI,2002-12-01,,Ativo,RHN,0
39433000,JOSÉ MARIANO,1,295.0,39,RIBEIRÃO,PERNAMBUCO,ANA,SGB-CPRM,-8.4675,-35.4014,,RIO AMARAGI,2002-12-01,,Ativo,RHN,0
39450000,ENGENHO BENTO,1,537.0,39,JOAQUIM NABUCO,PERNAMBUCO,ANA,SGB-CPRM,-8.4972,-35.4978,0.0,RIO SIRINHAÉM,1999-11-01,,Ativo,RHN,0
39530000,CACHOEIRINHA,1,1210.0,39,CACHOEIRINHA,PERNAMBUCO,ANA,SGB-CPRM,-8.4839,-36.2331,531.0,RIO UNA,1999-11-01,,Ativo,RHN,0
39540550,BATATEIRAS,1,2950.0,39,BELÉM DE MARIA,PERNAMBUCO,ANA,SGB-CPRM,-8.5397,-35.8508,418.0,RIO UNA,2012-04-01,,Ativo,RHN,0
39540610,AÇUDE BREJO DOS COELHOS,1,18.0,39,SÃO CAETANO,PERNAMBUCO,APAC-PE,APAC-PE,-8.3861,-36.0725,,RIACHO DO BREJO,2006-06-01,,Ativo,RHN,0
39540750,SÃO BENEDITO DO SUL,1,434.0,39,SÃO BENEDITO DO SUL,PERNAMBUCO,ANA,SGB-CPRM,-8.8161,-35.9339,,RIO PIRANJI,2011-02-01,,Ativo,RHN,0
39540800,JAQUEIRA,1,,39,JAQUEIRA,PERNAMBUCO,APAC-PE,APAC-PE,-8.7328,-35.7972,,RIACHO FERVEDOURO,2014-12-01,2023-12-01,Ativo,RHN,0
39541010,BELÉM DE MARIA,1,388.0,39,BELÉM DE MARIA,PERNAMBUCO,APAC-PE,APAC-PE,-8.6247,-35.8414,225.0,RIO PANELAS,,,Ativo,RHN,0
39550000,CATENDE,1,718.0,39,CATENDE,PERNAMBUCO,ANA,SGB-CPRM,-8.6786,-35.7233,0.0,RIO PIRANJI,1999-09-01,,Ativo,RHN,0
39560000,PALMARES,1,4910.0,39,PALMARES,PERNAMBUCO,ANA,SGB-CPRM,-8.6794,-35.5769,112.0,RIO UNA,1967-04-01,,Ativo,RHN,0
39571000,SÍTIO CACHOEIRA,1,352.0,39,MARAIAL,PERNAMBUCO,ANA,SGB-CPRM,-8.8967,-35.7678,150.0,RIO JACUÍPE,2004-09-01,,Ativo,RHN,0
39575000,CANHOTINHO,1,808.0,39,CANHOTINHO,PERNAMBUCO,ANA,SGB-CPRM,-8.8825,-36.2186,511.0,RIO CANHOTO,2011-03-01,,Ativo,RHN,0
39580000,JACUÍPE,1,756.0,39,JACUÍPE,ALAGOAS,ANA,SGB-CPRM,-8.8411,-35.4469,61.0,RIO JACUÍPE,1989-01-01,,Ativo,RHN,0
39590000,BARREIROS,1,6550.0,39,BARREIROS,PERNAMBUCO,ANA,SGB-CPRM,-8.7992,-35.205,,RIO UNA,2002-12-01,,Ativo,RHN,0
39610300,JUNDIÁ,1,,39,JUNDIÁ,ALAGOAS,SEMARH-AL,SEMARH-AL,-8.94357,-35.5552,,RIO MANGUABA,,,Ativo,RHN,0
39620300,PORTO CALVO - HIDRO,1,,39,PORTO CALVO,ALAGOAS,SEMARH-AL,SEMARH-AL,-9.06099,-35.3912,,RIO MANGUABA,,,Ativo,RHN,0
39650701,FLEXEIRAS,1,,39,FLEXEIRAS,ALAGOAS,SEMARH-AL,SEMARH-AL,-9.2744,-35.7261,,RIO JIRITUBA,2025-01-01,,Ativo,RHN,0
39651310,SÃO LUÍS DO QUITUNDE - HIDRO,1,,39,SÃO LUÍS DO QUITUND,ALAGOAS,SEMARH-AL,SEMARH-AL,-9.3092,-35.5617,,RIO SANTO ANTÔNIO,2025-01-01,,Ativo,RHN,0
39690000,CORRENTES,1,624.0,39,CORRENTES,PERNAMBUCO,ANA,SGB-CPRM,-9.1322,-36.3231,,RIO MUNDAÚ,2009-09-01,,Ativo,RHN,0
39700000,SANTANA DO MUNDAÚ,1,767.0,39,SANTANA DO MUNDAÚ,ALAGOAS,ANA,SGB-CPRM,-9.1678,-36.2175,,RIO MUNDAÚ,1990-10-01,,Ativo,RHN,0
39715000,PALMEIRINA,1,128.0,39,PALMEIRINA,PERNAMBUCO,ANA,SGB-CPRM,-9.0019,-36.3264,527.0,RIO INHUMAS,2011-02-01,,Ativo,RHN,0
39720000,SÃO JOSÉ DA LAJE,1,1170.0,39,SÃO JOSÉ DA LAJE,ALAGOAS,ANA,SGB-CPRM,-9.0042,-36.0511,256.0,RIO CANHOTO,1990-10-01,,Ativo,RHN,0
39740000,UNIÃO DOS PALMARES,1,2900.0,39,UNIÃO DOS PALMARES,ALAGOAS,ANA,SGB-CPRM,-9.1544,-36.0358,,RIO MUNDAÚ,1990-10-01,,Ativo,RHN,0
39760000,MURICI - PONTE,1,3290.0,39,MURICI,ALAGOAS,ANA,SGB-CPRM,-9.3136,-35.9497,82.0,RIO MUNDAÚ,1965-12-01,,Ativo,RHN,0
39770000,FAZENDA BOA FORTUNA,1,3560.0,39,RIO LARGO,ALAGOAS,ANA,SGB-CPRM,-9.4672,-35.8597,42.0,RIO MUNDAÚ,1965-10-01,,Ativo,RHN,0
39800000,BREJÃO,1,326.0,39,BREJÃO,PERNAMBUCO,ANA,SGB-CPRM,-9.0394,-36.5983,,RIACHO SECO,2004-09-01,,Ativo,RHN,0
39800100,MACEIÓ - HIDRO,1,,39,MACEIÓ,ALAGOAS,SEMARH-AL,SEMARH-AL,-9.6528,-35.7531,,LAGOA MANDAÚ,,,Ativo,RHN,0
39800105,MARECHAL - IMA,1,4330.0,39,MARECHAL DEODORO,ALAGOAS,SEMARH-AL,SEMARH-AL,-9.695,-35.7861,,LAGOA MANDAÚ,,,Ativo,RHN,0
39800110,COQUEIRO SECO,1,4300.0,39,COQUEIRO SECO,ALAGOAS,SEMARH-AL,SEMARH-AL,-9.6339,-35.7914,,LAGOA MANDAÚ,2024-04-01,,Ativo,RHN,0
39815010,MARECHAL DEODORO - MANGUABA,1,3450.0,39,MARECHAL DEODORO,ALAGOAS,SEMARH-AL,SEMARH-AL,-9.7167,-35.8922,,LAGOA MANGUABA,2024-04-01,,Ativo,RHN,0
39815100,PILAR,1,3400.0,39,PILAR,ALAGOAS,SEMARH-AL,SEMARH-AL,-9.6122,-35.9553,,LAGOA MANGUABA,2024-04-01,,Ativo,RHN,0
39852000,VILA SÃO FRANCISCO,1,1510.0,39,QUEBRANGULO,ALAGOAS,ANA,SGB-CPRM,-9.3656,-36.4194,354.0,RIO PARAÍBA,2011-06-01,,Ativo,RHN,0
39860000,VIÇOSA,1,1970.0,39,VIÇOSA,ALAGOAS,ANA,SGB-CPRM,-9.3792,-36.2492,212.0,RIO PARAÍBA,1989-01-01,,Ativo,RHN,0
39864500,CAJUEIRO - HIDRO,1,2193.0,39,CAJUEIRO,ALAGOAS,SEMARH-AL,SEMARH-AL,-9.3967,-36.1506,,RIO PARAÍBA,,,Ativo,RHN,0
39930000,BARRA DE SÃO MIGUEL - CAPTAÇÃO CASAL,1,,39,BARRA DE SÃO MIGUEL,ALAGOAS,SEMARH-AL,SEMARH-AL,-9.8278,-35.8944,,RIO NIQUIM,2023-12-01,,Ativo,RHN,0
39949900,ANADIA,1,,39,ANADIA,ALAGOAS,SEMARH-AL,SEMARH-AL,-9.6858,-36.2842,,RIO SÃO MIGUEL,2025-01-01,,Ativo,RHN,0
39950010,SÃO MIGUEL DOS CAMPOS - HIDRO,1,,39,SÃO MIGUEL DOS CAMP,ALAGOAS,SEMARH-AL,SEMARH-AL,-9.7781,-36.0956,,RIO SÃO MIGUEL,,,Ativo,RHN,0
39952000,JEQUIÁ DA PRAIA,1,572.0,39,JEQUIÁ DA PRAIA,ALAGOAS,SEMARH-AL,SEMARH-AL,-9.8919,-36.1361,,RIO JEQUIÁ,,,Ativo,RHN,0
39970001,LIMOEIRO DE ANADIA,1,,39,LIMOEIRO DE ANADIA,ALAGOAS,SEMARH-AL,SEMARH-AL,-9.7436,-36.5039,,RIO CORURIPE,2025-01-01,,Ativo,RHN,0
40053100,BARRA DO RIO SÃO MIGUEL,1,,40,RIACHINHO,MINAS GERAIS,IGAM-MG,IGAM-MG,-16.0469,-46.0308,489.0,RIO SÃO MIGUEL,,,Ativo,RHN,0
40100000,PORTO DAS ANDORINHAS,1,14000.0,40,ABAETÉ,MINAS GERAIS,ANA,SGB-CPRM,-19.2814,-45.2753,532.0,RIO SÃO FRANCISCO,1956-08-01,,Ativo,RHN,0
40100100,BARRA DO PARÁ,1,,40,MARTINHO CAMPOS,MINAS GERAIS,IGAM-MG,IGAM-MG,-19.2083,-45.1408,417.0,RIO PARÁ,,,Ativo,RHN,0
40185010,PARI,1,,40,DIVINÓPOLIS,MINAS GERAIS,IGAM-MG,IGAM-MG,-20.1852,-44.8937,704.0,RIO ITAPECIRICA,,,Ativo,RHN,0
40330000,VELHO DA TAIPA,1,7350.0,40,CONCEIÇÃO DO PARÁ,MINAS GERAIS,ANA,SGB-CPRM,-19.6939,-44.9308,575.0,RIO PARÁ,1938-07-01,,Ativo,RHN,0
40680001,ENTRE RIOS DE MINAS,1,469.0,40,ENTRE RIOS DE MINAS,MINAS GERAIS,IGAM-MG,IGAM-MG,-20.6603,-44.0719,903.0,RIO BRUMADO,,,Ativo,RHN,0
40710001,BELO VALE,1,2770.0,40,BELO VALE,MINAS GERAIS,IGAM-MG,IGAM-MG,-20.4083,-44.0217,787.0,RIO PARAOPEBA,,,Ativo,RHN,0
40712500,BONFIM,1,,40,BONFIM,MINAS GERAIS,IGAM-MG,IGAM-MG,-20.3744,-44.1858,800.0,RIO MACAÚBAS / RB MACAÚBAS / PEDRA,,,Ativo,RHN,0
40740000,ALBERTO FLORES,1,4120.0,40,BRUMADINHO,MINAS GERAIS,ANA,SGB-CPRM,-20.1667,-44.1606,725.0,RIO PARAOPEBA,1963-11-01,,Ativo,RHN,0
40755000,CRUCILANDIA,1,,40,CRUCILÂNDIA,MINAS GERAIS,IGAM-MG,IGAM-MG,-20.4036,-44.3386,896.0,RIO MANSO / CÓRREGO URUBU,,,Ativo,RHN,0
40789995,RESERVATÓRIO VARGENS DAS FLORES,1,,40,BETIM,MINAS GERAIS,COPASA-MG,IGAM-MG,-19.9183,-44.1694,,RIO BETIM / RIB. BETIM,2020-04-01,,Ativo,RHN,0
40800001,PONTE NOVA DO PARAOPEBA,1,5680.0,40,BETIM,MINAS GERAIS,ANA,SGB-CPRM,-19.9489,-44.3053,683.0,RIO PARAOPEBA,1937-11-01,,Ativo,RHN,0
40850010,PONTE DA TAQUARA,1,,40,PARAOPEBA,MINAS GERAIS,IGAM-MG,IGAM-MG,-19.4224,-44.5516,658.0,RIO PARAOPEBA,,,Ativo,RHN,0
40974900,FAZENDA SÃO FELIX,1,,40,SÃO GONÇALO DO ABAE,MINAS GERAIS,IGAM-MG,IGAM-MG,-18.4675,-45.6453,,RIO BORRACHUDO,,,Ativo,RHN,0
41075003,PORTO DO PASSARINHO,1,4130.0,41,SÃO GONÇALO DO ABAE,MINAS GERAIS,IGAM-MG,IGAM-MG,-18.4031,-45.7369,,RIO ABAETÉ,,,Ativo,RHN,0
41090006,SÃO GONÇALO DO ABAETÉ,1,,41,SÃO GONÇALO DO ABAE,MINAS GERAIS,SGB-CPRM,SGB-CPRM,-18.1092,-45.4664,,RIO ABAETÉ,,,Ativo,RHN,0
41151001,FAZENDA ÁGUA LIMPA - JUSANTE,1,173.0,41,OURO PRETO,MINAS GERAIS,IGAM-MG,IGAM-MG,-20.3053,-43.6164,965.0,RIO DAS VELHAS,,,Ativo,RHN,0
41180001,ITABIRITO-LINIGRAFO,1,302.0,41,ITABIRITO,MINAS GERAIS,IGAM-MG,IGAM-MG,-20.3011,-43.7981,877.0,RIO ITABIRITO,,,Ativo,RHN,0
41195050,RIO ACIMA,1,1450.0,41,RIO ACIMA,MINAS GERAIS,ANA,SGB-CPRM,-20.0919,-43.7919,748.0,RIO DAS VELHAS,2017-02-01,,Ativo,RHN,0
41200430,RAPOSOS,1,1930.0,41,RAPOSOS,MINAS GERAIS,ANA,SGB-CPRM,-19.9631,-43.8067,,RIO DAS VELHAS,2017-06-01,,Ativo,RHN,0
41210001,CAETÉ,1,16.5,41,CAETÉ,MINAS GERAIS,IGAM-MG,IGAM-MG,-19.9028,-43.6664,825.0,CÓRREGO DO CAETÉ,,,Ativo,RHN,0
41340000,PONTE RAUL SOARES,1,4860.0,41,LAGOA SANTA,MINAS GERAIS,ANA,SGB-CPRM,-19.5597,-43.9111,637.0,RIO DAS VELHAS,1938-02-01,,Ativo,RHN,0
41410000,JEQUITIBÁ,1,7080.0,41,JEQUITIBÁ,MINAS GERAIS,ANA,SGB-CPRM,-19.2311,-44.0247,650.0,RIO DAS VELHAS,1965-06-01,,Ativo,RHN,0
41600000,PIRAPAMA,1,7838.0,41,SANTANA DE PIRAPAMA,MINAS GERAIS,ANA,SGB-CPRM,-19.0111,-44.0383,612.0,RIO DAS VELHAS,1956-07-01,,Ativo,RHN,0
41650002,PONTE DO LICÍNIO - JUSANTE,1,10700.0,41,PRESIDENTE JUSCELIN,MINAS GERAIS,ANA,SGB-CPRM,-18.6728,-44.1939,560.0,RIO DAS VELHAS,1972-04-01,,Ativo,RHN,0
41780002,PRESIDENTE JUSCELINO - JUSANTE,1,3980.0,41,PRESIDENTE JUSCELIN,MINAS GERAIS,ANA,SGB-CPRM,-18.645,-44.0506,560.0,RIO PARAÚNA,1972-04-01,,Ativo,RHN,0
41940001,PONTE DO BICUDO,1,2070.0,41,CORINTO,MINAS GERAIS,IGAM-MG,IGAM-MG,-18.1908,-44.5556,569.0,RIO DO BICUDO,,,Ativo,RHN,0
41955000,LASSANCE,1,24500.0,41,LASSANCE,MINAS GERAIS,IGAM-MG,IGAM-MG,-17.9136,-44.5694,,RIO DAS VELHAS,,,Ativo,RHN,0
41990000,VÁRZEA DA PALMA,1,26500.0,41,VÁRZEA DA PALMA,MINAS GERAIS,ANA,SGB-CPRM,-17.5961,-44.7133,488.0,RIO DAS VELHAS,1938-06-01,,Ativo,RHN,0
42145499,FAZENDA UMBURANA MONTANTE,1,6910.0,42,JEQUITAÍ,MINAS GERAIS,IGAM-MG,IGAM-MG,-17.2097,-44.4603,520.0,RIO JEQUITAÍ,,,Ativo,RHN,0
42251001,FAZENDA CÓRREGO DO OURO,1,1870.0,42,GUARDA-MOR,MINAS GERAIS,IGAM-MG,IGAM-MG,-17.6133,-46.8592,546.0,RIO ESCURO,,,Ativo,RHN,0
42255500,SANTA IZABEL,1,,42,PARACATU,MINAS GERAIS,IGAM-MG,IGAM-MG,-17.2656,-46.9556,597.0,RIBEIRÃO SANTA ISABEL,,,Ativo,RHN,0
42395001,SANTA ROSA,1,,42,PARACATU,MINAS GERAIS,IGAM-MG,IGAM-MG,-17.255,-46.4728,,RIO PARACATU,2025-02-01,,Ativo,RHN,0
42430000,FAZENDA ELDORADO,1,287.0,42,CABECEIRAS,GOIÁS,ANA,SGB-CPRM,-15.6836,-47.1258,854.0,RIO BEZERRA,2009-09-01,,Ativo,RHN,0
42435001,FAZENDA BARRA DA ÉGUA,1,,42,PARACATU,MINAS GERAIS,IGAM-MG,IGAM-MG,-16.8744,-46.5867,,RIBEIRÃO BARRA DA ÉGUA,2025-02-01,,Ativo,RHN,0
42450050,RIBEIRÃO SANTA RITA,1,96.0,42,BRASÍLIA,DISTRITO FEDERAL,ADASA-DF,ADASA-DF,-15.5856,-47.3333,870.0,RIBEIRÃO SANTA RITA,2013-02-01,,Ativo,RHN,0
42450300,RIBEIRÃO JACARÉ,1,163.0,42,BRASÍLIA,DISTRITO FEDERAL,ANA,SGB-CPRM,-15.6406,-47.3567,,CÓRREGO BURITI GRANDE/ JACARÉ,2006-02-01,,Ativo,RHN,0
42450301,RIBEIRÃO JACARÉ (ADASA),1,163.0,42,BRASÍLIA,DISTRITO FEDERAL,ADASA-DF,ADASA-DF,-15.6406,-47.3567,,CÓRREGO BURITI GRANDE/ JACARÉ,2014-11-01,,Ativo,RHN,0
42450510,EXTREMA - DF 100,1,,42,BRASÍLIA,DISTRITO FEDERAL,ADASA-DF,ADASA-DF,-15.8458,-47.3853,,RIBEIRÃO EXTREMA,2009-04-01,,Ativo,RHN,0
42450600,RIO PRETO - FAZENDA ITAPETI,1,,42,BRASÍLIA,DISTRITO FEDERAL,ADASA-DF,ADASA-DF,-15.9428,-47.3636,,RIO PRETO,2009-04-01,,Ativo,RHN,0
42450900,RIBEIRÃO JARDIM DF-100,1,,42,BRASÍLIA,DISTRITO FEDERAL,ADASA-DF,ADASA-DF,-15.9739,-47.3986,,RIBEIRÃO JARDIM,2017-07-01,,Ativo,RHN,0
42452050,LAGOA FORMOSA,1,73.0,42,CABECEIRAS,GOIÁS,ANA,SGB-CPRM,-15.9192,-47.0186,,RIBEIRÃO FORMOSA,2024-06-01,,Ativo,RHN,0
42452080,RIBEIRÃO FORMOSA,1,195.0,42,CABECEIRA GRANDE,MINAS GERAIS,ANA,SGB-CPRM,-15.9464,-47.1233,,RIBEIRÃO FORMOSA,2024-06-01,,Ativo,RHN,0
42454000,RIO SÃO BERNARDO,1,98.7,42,BRASÍLIA,DISTRITO FEDERAL,ANA,SGB-CPRM,-16.0358,-47.415,,RIBEIRÃO SÃO BERNARDO,2006-03-01,,Ativo,RHN,0
42550900,PORTO DOS POÇÕES,1,,42,DOM BOSCO,MINAS GERAIS,IGAM-MG,IGAM-MG,-16.8406,-46.3572,,RIO PRETO,,,Ativo,RHN,0
42690002,PORTO DA EXTREMA,1,30100.0,42,BRASILÂNDIA DE MINA,MINAS GERAIS,IGAM-MG,IGAM-MG,-17.0303,-46.0136,484.0,RIO PARACATU,,,Ativo,RHN,0
42860020,CACHOEIRA DO PAREDÃO,1,,42,BURITIZEIRO,MINAS GERAIS,IGAM-MG,IGAM-MG,-17.1211,-45.4358,534.0,RIO DO SONO,,,Ativo,RHN,0
42970900,PORTO ALEGRE,1,,42,SANTA FÉ DE MINAS,MINAS GERAIS,IGAM-MG,IGAM-MG,-16.9075,-45.3819,493.0,RIO PARACATU,,,Ativo,RHN,0
42980500,BARRA DO RIO (PT013),1,,42,SANTA FÉ DE MINAS,MINAS GERAIS,IGAM-MG,IGAM-MG,-16.5871,-45.1336,425.0,RIO PARACATU,,,Ativo,RHN,0
43300001,FAZENDA CARVALHO,1,3160.0,43,BURITIS,MINAS GERAIS,IGAM-MG,IGAM-MG,-15.5242,-46.2844,522.0,RIO SÃO DOMINGOS,,,Ativo,RHN,0
43429997,ARINOS - MONTANTE,1,11800.0,43,ARINOS,MINAS GERAIS,IGAM-MG,IGAM-MG,-15.9244,-46.1106,,RIO URUCUIA,2007-12-01,2023-12-01,Ativo,RHN,0
43669999,URUCUIA,1,,43,URUCUIA,MINAS GERAIS,IGAM-MG,IGAM-MG,-16.1331,-45.7417,,RIO URUCUIA,2025-02-01,,Ativo,RHN,0
43675002,FAZENDA CONCEIÇÃO,1,,43,RIACHINHO,MINAS GERAIS,IGAM-MG,IGAM-MG,-16.4289,-45.7403,504.0,RIBEIRÃO DA CONCEIÇÃO,2025-02-01,,Ativo,RHN,0
43980002,BARRA DO ESCURO,1,24600.0,43,SÃO ROMÃO,MINAS GERAIS,ANA,SGB-CPRM,-16.2681,-45.2369,445.0,RIO URUCUIA,1986-08-01,,Ativo,RHN,0
44200000,SÃO FRANCISCO,1,184000.0,44,SÃO FRANCISCO,MINAS GERAIS,ANA,SGB-CPRM,-15.9494,-44.8678,448.0,RIO SÃO FRANCISCO,1924-10-01,,Ativo,RHN,0
44250000,USINA DO PANDEIROS MONTANTE,1,3230.0,44,JANUÁRIA,MINAS GERAIS,ANA,SGB-CPRM,-15.4831,-44.7681,520.0,RIO PANDEIROS,1973-04-01,,Ativo,RHN,0
44252000,USINA DO PANDEIROS JUSANTE,1,,44,JANUÁRIA,MINAS GERAIS,IGAM-MG,IGAM-MG,-15.5136,-44.7539,455.0,RIO PANDEIROS,,,Ativo,RHN,0
44290002,PEDRAS DE MARIA DA CRUZ,1,194000.0,44,PEDRAS DE MARIA DA,MINAS GERAIS,ANA,SGB-CPRM,-15.6011,-44.3967,445.0,RIO SÃO FRANCISCO,1972-08-01,,Ativo,RHN,0
44350000,BOM JARDIM,1,884.0,44,MONTES CLAROS,MINAS GERAIS,ANA,SGB-CPRM,-16.1086,-43.8561,519.0,RIBEIRÃO DO OURO,1999-11-01,,Ativo,RHN,0
44630500,BARRA DO RIO VERDE,1,3750.0,44,CAPITÃO ENÉAS,MINAS GERAIS,ANA,SGB-CPRM,-16.1758,-43.7711,,RIO VERDE GRANDE,2013-10-01,,Ativo,RHN,0
44634500,FAZENDA REATA,1,6114.0,44,CAPITÃO ENÉAS,MINAS GERAIS,ANA,SGB-CPRM,-16.065,-43.7306,494.0,RIO VERDE GRANDE,2019-04-01,,Ativo,RHN,0
44637900,AGRESTE,1,6888.0,44,SÃO JOÃO DA PONTE,MINAS GERAIS,ANA,SGB-CPRM,-15.9408,-43.6419,498.0,RIO VERDE GRANDE,2019-10-01,,Ativo,RHN,0
44640000,FAZENDA ALEGRE,1,9450.0,44,VERDELÂNDIA,MINAS GERAIS,ANA,SGB-CPRM,-15.7372,-43.5864,,RIO VERDE GRANDE,2002-12-01,,Ativo,RHN,0
44670000,COLÔNIA DO JAÍBA,1,12200.0,44,JAÍBA,MINAS GERAIS,ANA,SGB-CPRM,-15.3431,-43.6756,450.0,RIO VERDE GRANDE,1962-07-01,,Ativo,RHN,0
44940000,GADO BRAVO (EX. BOCA DA CAATINGA NOVA),1,22900.0,44,GAMELEIRAS,MINAS GERAIS,ANA,SGB-CPRM,-14.9228,-43.5014,,RIO VERDE GRANDE,2008-06-01,,Ativo,RHN,0
45154000,PONTE DO FORTUNATO,1,1349.0,45,COCOS,BAHIA,INEMA-BA,INEMA-BA,-14.2347,-44.6217,,RIO ITAGUARI,2004-05-01,,Ativo,RHN,0
45298000,CARINHANHA,1,254000.0,45,CARINHANHA,BAHIA,ANA,SGB-CPRM,-14.3042,-43.7631,427.0,RIO SÃO FRANCISCO,1927-09-01,,Ativo,RHN,0
45480000,BOM JESUS DA LAPA,1,271000.0,45,BOM JESUS DA LAPA,BAHIA,ANA,SGB-CPRM,-13.2572,-43.435,420.0,RIO SÃO FRANCISCO,1940-08-01,,Ativo,RHN,0
45590000,CORRENTINA,1,3900.0,45,CORRENTINA,BAHIA,ANA,SGB-CPRM,-13.3406,-44.6386,547.0,RIO CORRENTINA,1952-01-01,,Ativo,RHN,0
45701000,FAZENDA MORETE,1,1978.0,45,CORRENTINA,BAHIA,INEMA-BA,INEMA-BA,-13.2211,-45.1525,,RIO DO MEIO,2004-05-01,,Ativo,RHN,0
45760001,BEBEDOURO,1,1520.0,45,JABORANDI,BAHIA,INEMA-BA,INEMA-BA,-13.7369,-45.4639,,RIO ARROJADO,,,Ativo,RHN,0
45764900,FAZENDA CONQUISTA (RIO ARROJADO),1,,45,CORRENTINA,BAHIA,INEMA-BA,INEMA-BA,-13.6328,-45.0064,608.0,RIO ARROJADO,2020-06-01,,Ativo,RHN,0
45770000,ARROJADO,1,5540.0,45,CORRENTINA,BAHIA,ANA,SGB-CPRM,-13.4528,-44.5689,463.0,RIO ARROJADO,1952-10-01,,Ativo,RHN,0
45840000,GATOS,1,7130.0,45,JABORANDI,BAHIA,ANA,SGB-CPRM,-13.7122,-44.6383,581.0,RIO FORMOSO,1952-01-01,,Ativo,RHN,0
45850000,FAZENDA NOVA ESPERANÇA,1,735.0,45,JABORANDI,BAHIA,INEMA-BA,INEMA-BA,-13.9875,-45.3881,,RIO PRATUDÃO,2004-05-01,,Ativo,RHN,0
45863000,FAZENDA LAGOA DO CASAMENTO,1,1038.0,45,JABORANDI,BAHIA,INEMA-BA,INEMA-BA,-14.3972,-45.5197,793.0,RIO FORMOSO,2000-04-01,,Ativo,RHN,0
45880000,COLÔNIA DO FORMOSO,1,9550.0,45,CORIBE,BAHIA,ANA,SGB-CPRM,-13.5586,-44.3031,441.0,RIO FORMOSO,1972-04-01,,Ativo,RHN,0
45910001,SANTA MARIA DA VITÓRIA,1,29600.0,45,SANTA MARIA DA VITÓ,BAHIA,ANA,SGB-CPRM,-13.4006,-44.1989,432.0,RIO CORRENTE,1952-01-01,,Ativo,RHN,0
46220000,FAZENDA CACHOEIRA,1,427.0,46,ÉRICO CARDOSO,BAHIA,INEMA-BA,INEMA-BA,-13.4194,-42.1611,,RIO PARAMIRIM,2000-02-01,,Ativo,RHN,0
46360000,MORPARÁ,1,345000.0,46,MORPARÁ,BAHIA,ANA,SGB-CPRM,-11.5583,-43.2825,399.0,RIO SÃO FRANCISCO,1945-11-01,,Ativo,RHN,0
46415000,SÍTIO GRANDE,1,4950.0,46,SÃO DESIDÉRIO,BAHIA,ANA,SGB-CPRM,-12.4306,-45.0856,512.0,RIO GRANDE,1952-08-01,,Ativo,RHN,0
46417000,PONTE DO MOSQUITO,1,420.0,46,SÃO DESIDÉRIO,BAHIA,INEMA-BA,INEMA-BA,-12.6897,-45.8508,,RIO MOSQUITO,2001-08-01,,Ativo,RHN,0
46455000,DEROCAL,1,6350.0,46,SÃO DESIDÉRIO,BAHIA,ANA,SGB-CPRM,-12.4106,-45.1222,510.0,RIO DAS FÊMEAS,1969-10-01,,Ativo,RHN,0
46527000,FAZENDA VEREDA NOVA,1,487.0,46,SÃO DESIDÉRIO,BAHIA,INEMA-BA,INEMA-BA,-12.8334,-45.3078,,RIO GADO BRAVO,2004-04-01,,Ativo,RHN,0
46543000,FAZENDA REDENÇÃO,1,5380.0,46,BARREIRAS,BAHIA,ANA,SGB-CPRM,-12.1358,-45.1033,474.0,RIO DE ONDAS,1966-09-01,,Ativo,RHN,0
46550000,BARREIRAS,1,24400.0,46,BARREIRAS,BAHIA,ANA,SGB-CPRM,-12.1525,-45.0094,437.0,RIO GRANDE,1934-04-01,,Ativo,RHN,0
46570500,FAZENDA VALE DO URSO,1,1782.0,46,LUÍS EDUARDO MAGALH,BAHIA,INEMA-BA,INEMA-BA,-11.9033,-45.6806,762.0,RIO DE JANEIRO,2004-05-01,,Ativo,RHN,0
46590000,NOVA VIDA - MONTANTE,1,7480.0,46,BARREIRAS,BAHIA,ANA,SGB-CPRM,-11.8561,-45.12,456.0,RIO BRANCO,1966-09-01,,Ativo,RHN,0
46650000,TAGUÁ,1,36000.0,46,COTEGIPE,BAHIA,ANA,SGB-CPRM,-11.7208,-44.5022,459.0,RIO GRANDE,1939-06-01,,Ativo,RHN,0
46770010,FAZENDA BOM JARDIM,1,6930.0,46,FORMOSA DO RIO PRET,BAHIA,INEMA-BA,INEMA-BA,-10.9936,-45.5278,499.0,RIO SAPÃO,,,Ativo,RHN,0
46782000,BURITIZINHO,1,1501.0,46,FORMOSA DO RIO PRET,BAHIA,INEMA-BA,INEMA-BA,-11.2114,-45.4108,,RIO DO OURO,2004-04-01,,Ativo,RHN,0
46783000,FAZENDA OURICURI/SASSAFRÁS,1,1501.0,46,FORMOSA DO RIO PRET,BAHIA,INEMA-BA,INEMA-BA,-10.6092,-45.8242,,RIO SASSAFRAS,2004-04-01,,Ativo,RHN,0
46830000,IBIPETUBA,1,17900.0,46,SANTA RITA DE CÁSSI,BAHIA,ANA,SGB-CPRM,-11.0058,-44.5242,432.0,RIO PRETO,1940-06-01,,Ativo,RHN,0
46870000,FAZENDA PORTO LIMPO,1,22000.0,46,MANSIDÃO,BAHIA,ANA,SGB-CPRM,-11.2356,-43.9494,414.0,RIO PRETO,1952-09-01,,Ativo,RHN,0
46902000,BOQUEIRÃO,1,65900.0,46,MANSIDÃO,BAHIA,ANA,SGB-CPRM,-11.345,-43.8261,401.0,RIO GRANDE,1933-08-01,,Ativo,RHN,0
46998000,BARRA,1,425000.0,46,BARRA,BAHIA,ANA,SGB-CPRM,-11.0928,-43.1403,398.0,RIO SÃO FRANCISCO,1925-10-01,,Ativo,RHN,0
47221000,FAZENDA ÁGUA QUENTE,1,1438.0,47,GENTIO DO OURO,BAHIA,INEMA-BA,INEMA-BA,-11.5483,-42.3361,,RIO VERDE,2000-07-01,,Ativo,RHN,0
48020000,JUAZEIRO,1,516000.0,48,JUAZEIRO,BAHIA,ANA,SGB-CPRM,-9.4064,-40.5036,358.0,RIO SÃO FRANCISCO,1914-02-01,,Ativo,RHN,0
48321000,SALGUEIRO - JUSANTE,1,205.0,48,VERDEJANTE,PERNAMBUCO,ANA,APAC-PE,-8.0314,-39.0619,437.0,RIACHO DO MEIO,2020-09-01,,Ativo,RHN,0
48330040,SACO II - JUSANTE,1,2569.0,48,SANTA MARIA DA BOA,PERNAMBUCO,ANA,APAC-PE,-8.5439,-40.1661,391.0,RIACHO DAS GARÇAS,2020-09-01,,Ativo,RHN,0
48395500,MATA DE SÃO JOSÉ,1,555000.0,48,OROCÓ,PERNAMBUCO,ANA,SGB-CPRM,-8.5731,-39.4619,329.0,RIO SÃO FRANCISCO,2017-01-01,,Ativo,RHN,0
49480050,ÁGUAS BELAS JUSANTE,1,3950.0,49,ÁGUAS BELAS,PERNAMBUCO,ANA,SEMARH-AL,-9.135,-37.1597,,RIO IPANEMA,2020-05-01,,Ativo,RHN,0
49490002,SANTANA DO IPANEMA - HIDRO,1,,49,SANTANA DO IPANEMA,ALAGOAS,SEMARH-AL,SEMARH-AL,-9.3731,-37.2467,,RIO IPANEMA,,,Ativo,RHN,0
49705000,PROPRIÁ,1,631000.0,49,PROPRIÁ,SERGIPE,ANA,SGB-CPRM,-10.2139,-36.8239,1.6,RIO SÃO FRANCISCO,1926-12-01,,Ativo,RHN,0
50080000,SANTA ROSA DE LIMA,1,2070.0,50,SANTA ROSA DE LIMA,SERGIPE,ANA,SGB-CPRM,-10.6642,-37.1903,15.0,RIO SERGIPE,1952-05-01,,Ativo,RHN,0
50169500,CAMINHO DO RIO,1,14300.0,50,PEDRA MOLE,SERGIPE,ANA,SGB-CPRM,-10.6392,-37.6969,,RIO VAZA-BARRIS,,,Ativo,RHN,0
50191000,FAZENDA BELÉM,1,15900.0,50,ITAPORANGA D'AJUDA,SERGIPE,ANA,SGB-CPRM,-10.9431,-37.3469,19.0,RIO VAZA-BARRIS,1943-10-01,,Ativo,RHN,0
50290000,ITANHY,1,4480.0,50,JANDAÍRA,BAHIA,ANA,SGB-CPRM,-11.5397,-37.5681,1.0,RIO REAL,1965-11-01,,Ativo,RHN,0
50300000,FAZENDA ALECRIM,1,744.0,50,FILADÉLFIA,BAHIA,INEMA-BA,INEMA-BA,-10.7522,-40.2244,,RIO AIPIM,2000-06-01,,Ativo,RHN,0
50315000,AÇUDE PINDOBAÇU MONTANTE,1,553.0,50,PINDOBAÇU,BAHIA,INEMA-BA,INEMA-BA,-10.7614,-40.4369,,RIO ITAPICURU,2015-09-01,,Ativo,RHN,0
50380400,FAZENDA PORTEIRA,1,1470.0,50,SAÚDE,BAHIA,INEMA-BA,INEMA-BA,-10.8489,-40.2681,,RIO ITAPICURU-AÇU,2000-05-01,,Ativo,RHN,0
50416000,FAZENDA PINTADAS,1,2044.0,50,JACOBINA,BAHIA,INEMA-BA,INEMA-BA,-11.1869,-40.1936,,RIO ITAPICURU-AÇU,2000-04-01,,Ativo,RHN,0
50429000,AÇUDE PEDRAS ALTAS,1,,50,JACOBINA,BAHIA,INEMA-BA,INEMA-BA,-11.1878,-40.0519,,RIO ITAPICURU,2000-01-01,,Ativo,RHN,0
50465000,QUEIMADAS,1,11800.0,50,QUEIMADAS,BAHIA,ANA,SGB-CPRM,-10.9733,-39.6328,265.0,RIO ITAPICURU,1934-03-01,,Ativo,RHN,0
50465002,QUEIMADAS,1,,50,QUEIMADAS,BAHIA,INEMA-BA,INEMA-BA,-10.9733,-39.6328,,RIO ITAPICURU,,,Ativo,RHN,0
50520000,PONTE EUCLIDES DA CUNHA,1,26100.0,50,TUCANO,BAHIA,ANA,SGB-CPRM,-11.0603,-38.8372,140.0,RIO ITAPICURU,1966-01-01,,Ativo,RHN,0
50540001,CIPÓ,1,,50,CIPÓ,BAHIA,INEMA-BA,INEMA-BA,-11.0975,-38.5125,,RIO ITAPICURU,,,Ativo,RHN,0
50595000,USINA ALTAMIRA,1,35200.0,50,CONDE,BAHIA,ANA,SGB-CPRM,-11.7347,-37.8033,17.0,RIO ITAPICURU,1964-03-01,,Ativo,RHN,0
50660000,CORTE GRANDE,1,4380.0,50,ESPLANADA,BAHIA,ANA,SGB-CPRM,-12.0536,-37.755,6.0,RIO INHAMBUPE,1965-11-01,,Ativo,RHN,0
50785000,PEDRA DO SALGADO,1,4480.0,50,MATA DE SÃO JOÃO,BAHIA,ANA,SGB-CPRM,-12.3761,-38.1331,34.0,RIO POJUCA,1963-04-01,,Ativo,RHN,0
50795000,TIRIRICA,1,4700.0,50,CAMAÇARI,BAHIA,ANA,SGB-CPRM,-12.5119,-38.0667,22.0,RIO POJUCA,1961-01-01,,Ativo,RHN,0
51107000,IBICOARA,1,348.0,51,IBICOARA,BAHIA,INEMA-BA,INEMA-BA,-13.4363,-41.3361,,RIO PARAGUAÇU,2000-04-01,,Ativo,RHN,0
51151000,FAZENDA TERRA GRAPIUNA,1,1030.0,51,UTINGA,BAHIA,INEMA-BA,INEMA-BA,-12.1806,-41.1497,,RIO UTINGA,2000-04-01,,Ativo,RHN,0
51193000,SANTO ANTÔNIO/PORTO,1,6182.0,51,LENÇÓIS,BAHIA,INEMA-BA,INEMA-BA,-12.4911,-41.3289,,RIO PARAGUAÇU,2000-04-01,,Ativo,RHN,0
51230001,FAZENDA IGUAÇU,1,,51,ITAETÉ,BAHIA,INEMA-BA,INEMA-BA,-12.9361,-41.0644,,RIO DE UNA,,,Ativo,RHN,0
51240000,ITAETÉ,1,16500.0,51,ITAETÉ,BAHIA,ANA,SGB-CPRM,-12.9861,-40.9581,286.0,RIO PARAGUAÇU,1931-04-01,,Ativo,RHN,0
51280000,IAÇU,1,22800.0,51,IAÇU,BAHIA,ANA,SGB-CPRM,-12.7622,-40.2136,222.0,RIO PARAGUAÇU,1929-11-01,,Ativo,RHN,0
51397000,MORRO DO CHAPÉU,1,,51,MORRO DO CHAPÉU,BAHIA,INEMA-BA,INEMA-BA,-11.5853,-40.8794,,RIO JACUÍPE,,,Ativo,RHN,0
51890000,NILO PEÇANHA,1,2860.0,51,NILO PEÇANHA,BAHIA,ANA,SGB-CPRM,-13.5967,-39.1203,6.0,RIO DAS ALMAS OU JEQUIÉ,1945-08-01,,Ativo,RHN,0
53050000,ITAJUÍPE,1,632.0,53,ITAJUÍPE,BAHIA,INEMA-BA,INEMA-BA,-14.6744,-39.3769,78.0,RIO ALMADA,1935-09-01,,Ativo,RHN,0
53130000,ITAJÚ DO COLÔNIA,1,1360.0,53,ITAJU DO COLÔNIA,BAHIA,INEMA-BA,INEMA-BA,-15.1444,-39.7225,165.0,RIO COLÔNIA,1963-01-01,,Ativo,RHN,0
53140000,ESTIVA DE BAIXO,1,2260.0,53,ITAPÉ,BAHIA,INEMA-BA,INEMA-BA,-14.9339,-39.4675,101.0,RIO COLÔNIA,1969-01-01,,Ativo,RHN,0
53320200,FAZENDA VALMONTE,1,,53,UNA,BAHIA,INEMA-BA,INEMA-BA,-15.2831,-39.1125,,RIO UNA,2016-02-01,,Ativo,RHN,0
53470000,CH MORAIS JUSANTE,1,3910.0,53,RIO PARDO DE MINAS,MINAS GERAIS,ANA,SGB-CPRM,-15.7,-42.3667,,RIO PARDO,2014-11-01,,Ativo,RHN,0
53511000,BARRA DO MOSQUITO,1,,53,ÁGUAS VERMELHAS,MINAS GERAIS,IGAM-MG,IGAM-MG,-15.5064,-41.3692,671.0,RIO MOSQUITO,,,Ativo,RHN,0
53620000,CÂNDIDO SALES,1,13000.0,53,CÂNDIDO SALES,BAHIA,ANA,SGB-CPRM,-15.5133,-41.2367,610.0,RIO PARDO,1949-04-01,,Ativo,RHN,0
53880000,FAZENDA NANCY,1,29400.0,53,CAMACAN,BAHIA,ANA,SGB-CPRM,-15.6039,-39.5167,69.0,RIO PARDO,1963-01-01,,Ativo,RHN,0
54110003,FAZENDA JAMBEIRO - GRÃO MOGOL,1,4050.0,54,GRÃO MOGOL,MINAS GERAIS,IGAM-MG,IGAM-MG,-16.5914,-42.9183,750.0,RIO ITACAMBIRUÇU,,,Ativo,RHN,0
54193100,RUBELITA,1,3020.0,54,RUBELITA,MINAS GERAIS,IGAM-MG,IGAM-MG,-16.4084,-42.2649,,RIO SALINAS,,,Ativo,RHN,0
54195040,BARRA DO SALINAS,1,,54,CORONEL MURTA,MINAS GERAIS,IGAM-MG,IGAM-MG,-16.6164,-42.3114,,RIO JEQUITINHONHA,,,Ativo,RHN,0
54730006,FAZENDA BOA SORTE JUSANTE,1,1900.0,54,JOAÍMA,MINAS GERAIS,IGAM-MG,IGAM-MG,-16.6222,-41.0281,300.0,RIO SÃO MIGUEL,,,Ativo,RHN,0
54770100,FAZENDA CAJUEIRO,1,,54,ALMENARA,MINAS GERAIS,IGAM-MG,IGAM-MG,-16.1194,-40.7403,208.0,RIO SÃO FRANCISCO,,,Ativo,RHN,0
55323000,BOA ESPERANÇA - BARRAGEM ITAUNINHAS,1,270.0,55,BOA ESPERANÇA,ESPÍRITO SANTO,AGERH-ES,AGERH-ES,-18.4967,-40.2675,70.0,RIO PRETO OU ITAUNINHA,2022-11-01,,Ativo,RHN,0
55610001,FRANCISCO SÁ,1,1850.0,55,CARLOS CHAGAS,MINAS GERAIS,IGAM-MG,IGAM-MG,-17.7386,-41.1222,245.0,RIO TODOS OS SANTOS,,,Ativo,RHN,0
55660001,SÃO PEDRO DO PAMPÃ,1,1940.0,55,UMBURATIBA,MINAS GERAIS,IGAM-MG,IGAM-MG,-17.3203,-40.6764,192.0,RIO PAMPÃ,,,Ativo,RHN,0
55747970,CONCEIÇÃO DA BARRA - PARQUE DE ITAÚNAS,1,4500.0,55,CONCEIÇÃO DA BARRA,ESPÍRITO SANTO,AGERH-ES,AGERH-ES,-18.4042,-39.7233,,RIO ITAÚNAS,2022-11-01,,Ativo,RHN,0
55810000,COTAXÉ,1,7434.0,55,SÃO MATEUS,ESPÍRITO SANTO,ANA,SGB-CPRM,-18.6275,-40.1117,,RIO SÃO MATEUS / BRAÇO NORTE,2021-08-01,,Ativo,RHN,0
55885100,CRICARÉ,1,4539.0,55,SÃO MATEUS,ESPÍRITO SANTO,ANA,SGB-CPRM,-18.6508,-40.1217,,RIO CRICARÉ OU BRAÇO SUL SÃO MATEUS,2021-08-01,,Ativo,RHN,0
55899000,BARRA DE SÃO FRANCISCO - BARRA DO TRIUNFO,1,3000.0,55,BARRA DE SÃO FRANCI,ESPÍRITO SANTO,AGERH-ES,AGERH-ES,-18.7067,-40.795,140.0,RIO CRICARÉ OU BRAÇO SUL SÃO MATEUS,2022-11-01,,Ativo,RHN,0
55990400,JAGUARÉ - FÁTIMA,1,620.0,55,JAGUARÉ,ESPÍRITO SANTO,AGERH-ES,AGERH-ES,-18.94,-40.1828,22.0,RIO BARRA SECA,2023-02-01,2023-06-01,Ativo,RHN,0
56083000,VIÇOSA HIDRO,1,25.0,56,VIÇOSA,MINAS GERAIS,IGAM-MG,IGAM-MG,-20.7772,-42.8806,674.0,RIO SÃO BARTOLOMEU,,,Ativo,RHN,0
56094500,SAH BRECHA JUSANTE,1,4720.0,56,GUARACIABA,MINAS GERAIS,SGB-CPRM,SGB-CPRM,-20.5436,-42.9667,,RIO PIRANGA,2023-10-01,,Ativo,RHN,0
56425000,FAZENDA CACHOEIRA D'ANTAS,1,10100.0,56,SÃO JOSÉ DO GOIABAL,MINAS GERAIS,ANA,SGB-CPRM,-19.9944,-42.6744,,RIO DOCE,1981-11-01,,Ativo,RHN,0
56539000,CACHOEIRA DOS ÓCULOS - MONTANTE,1,15900.0,56,CÓRREGO NOVO,MINAS GERAIS,ANA,SGB-CPRM,-19.7769,-42.4764,210.0,RIO DOCE,1974-09-01,,Ativo,RHN,0
56575055,ARACRUZ - VILA DO RIACHO,1,880.0,56,ARACRUZ,ESPÍRITO SANTO,AGERH-ES,AGERH-ES,-19.7522,-40.0403,,RIO RIACHO,2022-11-01,,Ativo,RHN,0
56610000,RIO PIRACICABA,1,1163.0,56,RIO PIRACICABA,MINAS GERAIS,ANA,SGB-CPRM,-19.9317,-43.1731,0.0,RIO PIRACICABA,1925-12-01,,Ativo,RHN,0
56719998,BELO ORIENTE,1,24200.0,56,BELO ORIENTE,MINAS GERAIS,ANA,SGB-CPRM,-19.3297,-42.3761,211.0,RIO DOCE,1986-10-01,,Ativo,RHN,0
56860001,SÃO PEDRO DO SUAÇUÍ,1,2570.0,56,SÃO PEDRO DO SUAÇUÍ,MINAS GERAIS,IGAM-MG,IGAM-MG,-18.3631,-42.6022,420.0,RIO SUAÇUÍ GRANDE,,,Ativo,RHN,0
56920000,TUMIRITINGA,1,55100.0,56,GALILÉIA,MINAS GERAIS,ANA,SGB-CPRM,-18.9711,-41.6417,135.0,RIO DOCE,1972-07-01,,Ativo,RHN,0
56933020,BARRA DO CUIETÉ JUSANTE,1,,56,CONSELHEIRO PENA,MINAS GERAIS,IGAM-MG,IGAM-MG,-19.0639,-41.5308,116.0,RIO CARATINGA,,,Ativo,RHN,0
56950080,UHE PONTE DO SILVA - UPS,1,91.0,56,SÃO JOÃO DO MANHUAÇ,MINAS GERAIS,SEMESA,SEMESA,-20.3522,-42.065,811.0,RIO DOCE,1999-10-01,,Ativo,RHN,0
56988500,IPANEMA,1,1410.0,56,IPANEMA,MINAS GERAIS,ANA,SGB-CPRM,-19.7989,-41.7061,180.0,RIO JOSÉ PEDRO,1938-05-01,,Ativo,RHN,0
56988550,IPANEMA,1,,56,IPANEMA,MINAS GERAIS,IGAM-MG,IGAM-MG,-19.7906,-41.7075,235.0,RIO JOSÉ PEDRO,,,Ativo,RHN,0
56990020,SÃO SEBASTIÃO DA ENCRUZILHADA,1,,56,AIMORÉS,MINAS GERAIS,IGAM-MG,IGAM-MG,-19.4919,-41.1617,117.0,RIO MANHUAÇU,,,Ativo,RHN,0
56990950,AFONSO CLÁUDIO - SEDE,1,250.0,56,AFONSO CLÁUDIO,ESPÍRITO SANTO,AGERH-ES,AGERH-ES,-20.0975,-41.12,381.0,RIO DO PEIXE,2022-11-01,,Ativo,RHN,0
56993400,Colatina - Foz do Rio Santa Joana,1,901.0,56,COLATINA,ESPÍRITO SANTO,AGERH-ES,AGERH-ES,-19.5585,-40.7332,,RIO SANTA JOANA,2022-11-01,,Ativo,RHN,0
56993700,CHG TABOCAS,1,25.0,56,SANTA TERESA,ESPÍRITO SANTO,ELFSM,ELFSM,-19.8667,-40.6856,,RIO TABOCAS,2001-07-01,,Ativo,RHN,0
56994100,CGH SANTA MARIA,1,870.0,56,COLATINA,ESPÍRITO SANTO,ELFSM,ELFSM,-19.6169,-40.6131,,RIO SANTA MARIA DO RIO DOCE,2001-07-01,,Ativo,RHN,0
56994500,COLATINA PONTE,1,76400.0,56,COLATINA,ESPÍRITO SANTO,ANA,SGB-CPRM,-19.5333,-40.6297,62.0,RIO DOCE,1937-12-01,,Ativo,RHN,0
56994575,COLATINA - VIADUTO FERROVIÁRIO,1,930.0,56,COLATINA,ESPÍRITO SANTO,AGERH-ES,AGERH-ES,-19.5623,-40.6244,40.0,RIO SANTA MARIA DO RIO DOCE,2023-11-01,,Ativo,RHN,0
56995570,COLATINA - RODOVIA DO CONTORNO,1,990.0,56,COLATINA,ESPÍRITO SANTO,AGERH-ES,AGERH-ES,-19.4453,-40.6461,60.0,RIO PANCAS,2023-02-01,,Ativo,RHN,0
56995600,CGH CACHOEIRA DO OITO,1,1160.0,56,COLATINA,ESPÍRITO SANTO,ELFSM,ELFSM,-19.4697,-40.6131,,RIO PANCAS,2001-07-01,,Ativo,RHN,0
56996850,ÁGUIA BRANCA - VILA VERDE,1,510.0,56,ÁGUIA BRANCA,ESPÍRITO SANTO,AGERH-ES,AGERH-ES,-18.9994,-40.8278,143.0,RIO SÃO JOSÉ,2022-11-01,,Ativo,RHN,0
56997300,CGH CACHOEIRA DA ONÇA,1,1030.0,56,SÃO GABRIEL DA PALH,ESPÍRITO SANTO,ELFSM,ELFSM,-19.05,-40.5325,,RIO SÃO JOSÉ,2001-07-01,,Ativo,RHN,0
56997690,RIO BANANAL - PATRIMÔNIO DA LAGOA,1,2100.0,56,RIO BANANAL (REGÊNC,ESPÍRITO SANTO,AGERH-ES,AGERH-ES,-19.1233,-40.2383,,RIO SÃO JOSÉ,2022-11-01,,Ativo,RHN,0
56998200,LINHARES CAIS DO PORTO,1,82100.0,56,LINHARES,ESPÍRITO SANTO,ANA,SGB-CPRM,-19.4153,-40.0756,,RIO DOCE,2005-11-01,,Ativo,RHN,0
57090000,SANTA MARIA DE JETIBÁ - SÃO JOÃO DE GARRAFÃO,1,57.0,57,SANTA MARIA DE JETI,ESPÍRITO SANTO,AGERH-ES,AGERH-ES,-20.1476,-40.9598,1004.0,RIO SANTA MARIA DA VITÓRIA,2023-02-01,,Ativo,RHN,0
57100900,LINHARES - LAGOA NOVA,1,350.0,57,LINHARES,ESPÍRITO SANTO,AGERH-ES,AGERH-ES,-19.4208,-40.1906,17.0,RIO BANANAL,2022-11-01,,Ativo,RHN,0
57118000,Santa Maria de Jetibá - Possmouser,1,110.0,57,SANTA MARIA DE JETI,ESPÍRITO SANTO,AGERH-ES,AGERH-ES,-20.07,-40.7917,782.0,RIO POSSMOUSER,2022-11-01,,Ativo,RHN,0
57133000,FAZENDA SANTA ROSA,1,1282.0,57,SERRA,ESPÍRITO SANTO,CESAN,CESAN,-20.1439,-40.4317,,RIO SANTA MARIA DA VITÓRIA,2015-07-01,,Ativo,RHN,0
57133800,SANTA LEOPOLDINA - MANGARAÍ,1,160.0,57,SANTA LEOPOLDINA,ESPÍRITO SANTO,AGERH-ES,AGERH-ES,-20.1553,-40.4578,,RIO MANGARAI,2023-02-01,,Ativo,RHN,0
57145000,DOMINGOS MARTINS - PONTO ALTO,1,530.0,57,DOMINGOS MARTINS,ESPÍRITO SANTO,AGERH-ES,AGERH-ES,-20.2992,-40.8783,659.0,RIO JUCU - BRAÇO NORTE,2022-11-01,2023-06-01,Ativo,RHN,0
57228000,FAZENDA SAUANHA,1,1891.0,57,VIANA,ESPÍRITO SANTO,CESAN,CESAN,-20.4325,-40.4586,,RIO JUCU,2014-11-01,,Ativo,RHN,0
57248050,FAZENDA JABUTI,1,28.8,57,GUARAPARI,ESPÍRITO SANTO,CESAN,CESAN,-20.6386,-40.5756,,RIO JABUTI,2015-02-01,,Ativo,RHN,0
57260300,FAZENDA JABAQUARA,1,824.0,57,GUARAPARI,ESPÍRITO SANTO,CESAN,CESAN,-20.6892,-40.6769,,RIO BENEVENTE,2014-12-01,,Ativo,RHN,0
57270003,ANCHIETA - JABAQUARA,1,840.0,57,ANCHIETA,ESPÍRITO SANTO,AGERH-ES,AGERH-ES,-20.7094,-40.6706,,RIO BENEVENTE,2022-11-01,,Ativo,RHN,0
57414500,IBITIRAMA - SÃO JOSÉ DO CAPARAÓ,1,,57,IBITIRAMA,ESPÍRITO SANTO,AGERH-ES,AGERH-ES,-20.4284,-41.6795,1006.0,RIO BRAÇO NORTE DIREITO,2023-03-01,,Ativo,RHN,0
57420010,IBITIRAMA - SEDE,1,337.0,57,IBITIRAMA,ESPÍRITO SANTO,AGERH-ES,AGERH-ES,-20.5406,-41.6656,710.0,RIO BRAÇO NORTE DIREITO,,,Ativo,RHN,0
57700000,CAIANA,1,406.0,57,CAIANA,MINAS GERAIS,ANA,SGB-CPRM,-20.6947,-41.9214,739.0,RIO SÃO JOÃO,1935-10-01,,Ativo,RHN,0
57750000,SANTA RITA DO PRATA,1,1598.0,57,VARRE-SAI,RIO DE JANEIRO,ANA,SGB-CPRM,-20.8592,-41.7425,578.0,RIO ITABAPOANA,2017-05-01,,Ativo,RHN,0
57769900,São José do Calçado - ALTO CALÇADO,1,28.0,57,SÃO JOSÉ DO CALÇADO,ESPÍRITO SANTO,AGERH-ES,AGERH-ES,-20.9453,-41.6167,523.0,SEM NOME,2023-11-01,2023-06-01,Ativo,RHN,0
57830000,PONTE DO ITABAPOANA,1,2720.0,57,MIMOSO DO SUL,ESPÍRITO SANTO,ANA,SGB-CPRM,-21.2061,-41.4639,40.0,RIO ITABAPOANA,1930-09-01,,Ativo,RHN,0
58040000,SÃO LUÍS DO PARAITINGA,1,1950.0,58,SÃO LUÍS DO PARAITI,SÃO PAULO,ANA,SGB-CPRM,-23.2386,-45.3067,730.0,RIO PARAITINGA,1988-02-01,,Ativo,RHN,0
58183000,PINDAMONHANGABA,1,9600.0,58,PINDAMONHANGABA,SÃO PAULO,ANA,SGB-CPRM,-22.9117,-45.47,539.0,RIO PARAÍBA DO SUL,1926-01-01,,Ativo,RHN,0
58204000,GUARATINGUETÁ,1,10800.0,58,GUARATINGUETÁ,SÃO PAULO,ANA,SGB-CPRM,-22.8119,-45.1825,520.0,RIO PARAÍBA DO SUL,1922-11-01,,Ativo,RHN,0
58235101,QUELUZ DAEE,1,12800.0,58,QUELUZ,SÃO PAULO,SPÁGUAS-SP,SPÁGUAS-SP,-22.54,-44.7728,464.0,RIO PARAÍBA DO SUL,,,Ativo,RHN,0
58375000,JAVARY,1,,58,MIGUEL PEREIRA,RIO DE JANEIRO,INEA-RJ,INEA-RJ,-22.4683,-43.49,,RIO DO SACO,2018-04-01,,Ativo,RHN,0
58378000,MIGUEL PEREIRA,1,30.9,58,MIGUEL PEREIRA,RIO DE JANEIRO,INEA-RJ,INEA-RJ,-22.4444,-43.4467,599.0,RIO DO SACO,2008-11-01,,Ativo,RHN,0
58380001,PARAÍBA DO SUL,1,21400.0,58,PARAÍBA DO SUL,RIO DE JANEIRO,ANA,SGB-CPRM,-22.1628,-43.2864,280.0,RIO PARAÍBA DO SUL,1955-08-01,,Ativo,RHN,0
58400020,PETRÓPOLIS,1,9.8,58,PETRÓPOLIS,RIO DE JANEIRO,INEA-RJ,INEA-RJ,-22.5192,-43.1872,824.2,RIO QUITANDINHA,2008-11-01,,Ativo,RHN,0
58400212,ROCIO 2 - PONTE,1,13.0,58,PETRÓPOLIS,RIO DE JANEIRO,SGB-CPRM,SGB-CPRM,-22.4775,-43.2569,,CÓRREGO DA CIDADE,2010-04-01,,Ativo,RHN,0
58405000,PEDRO DO RIO,1,435.0,58,PETRÓPOLIS,RIO DE JANEIRO,SGB-CPRM,SGB-CPRM,-22.3319,-43.1317,645.0,RIO PIABANHA,1930-08-01,,Ativo,RHN,0
58410000,TERESÓPOLIS - PAQUEQUER,1,26.9,58,TERESÓPOLIS,RIO DE JANEIRO,INEA-RJ,INEA-RJ,-22.4306,-42.9764,885.0,RIO PAQUEQUER,1973-11-01,,Ativo,RHN,0
58470520,PONTE RIBEIRÃO ESTIVA JUSANTE,1,,58,JUIZ DE FORA,MINAS GERAIS,ARCELOR,ARCELOR,-21.6256,-43.4558,,RIBEIRÃO DA ESTIVA,2019-06-01,,Ativo,RHN,0
58520000,SOBRAJI,1,3640.0,58,BELMIRO BRAGA,MINAS GERAIS,ANA,SGB-CPRM,-21.9667,-43.3744,450.0,RIO PARAÍBUNA,1952-04-01,,Ativo,RHN,0
58530000,PONTE DO SOUZA,1,284.0,58,RESENDE,RIO DE JANEIRO,ANA,SGB-CPRM,-22.2708,-44.39,919.0,RIO PRETO,1936-07-01,,Ativo,RHN,0
58550001,RIO PRETO,1,1800.0,58,RIO PRETO,MINAS GERAIS,ANA,SGB-CPRM,-22.0861,-43.82,426.0,RIO PRETO,1932-03-01,,Ativo,RHN,0
58583000,RIO DAS FLORES,1,48.3,58,RIO DAS FLORES,RIO DE JANEIRO,INEA-RJ,INEA-RJ,-22.1683,-43.5869,503.6,RIBEIRÃO MANOEL PEREIRA,2008-11-01,,Ativo,RHN,0
58585000,MANUEL DUARTE,1,3110.0,58,RIO DAS FLORES,RIO DE JANEIRO,ANA,SGB-CPRM,-22.0844,-43.5589,395.0,RIO PRETO,1942-08-01,,Ativo,RHN,1
58680001,ITAOCARA,1,36600.0,58,ITAOCARA,RIO DE JANEIRO,ANA,SGB-CPRM,-21.6658,-42.0811,65.0,RIO PARAÍBA DO SUL,1967-08-01,,Ativo,RHN,0
58735000,ASTOLFO DUTRA,1,2350.0,58,ASTOLFO DUTRA,MINAS GERAIS,ANA,SGB-CPRM,-21.3094,-42.8619,165.0,RIO POMBA,1931-12-01,,Ativo,RHN,0
58736000,BARRA DO XOPOTÓ,1,1280.0,58,ASTOLFO DUTRA,MINAS GERAIS,ANA,SGB-CPRM,-21.2931,-42.82,230.0,RIO XOPOTÓ,1988-03-01,,Ativo,RHN,0
58765010,USINA MAURÍCIO - JUSANTE,1,1901.0,58,ITAMARATI DE MINAS,MINAS GERAIS,ANA,SGB-CPRM,-21.4503,-42.7992,,RIO NOVO,2022-07-01,,Ativo,RHN,0
58770000,CATAGUASES,1,5880.0,58,CATAGUASES,MINAS GERAIS,ANA,SGB-CPRM,-21.3894,-42.6964,169.0,RIO POMBA,1930-07-01,,Ativo,RHN,0
58790002,SANTO ANTÔNIO DE PÁDUA II,1,8210.0,58,SANTO ANTÔNIO DE PÁ,RIO DE JANEIRO,ANA,SGB-CPRM,-21.5422,-42.1806,,RIO POMBA,2001-02-01,,Ativo,RHN,0
58792100,APERIBÉ,1,8530.0,58,APERIBÉ,RIO DE JANEIRO,ANA,SGB-CPRM,-21.6211,-42.1,,RIO POMBA,2014-02-01,,Ativo,RHN,0
58826035,YPU,1,56.4,58,NOVA FRIBURGO,RIO DE JANEIRO,INEA-RJ,INFOPER,-22.2956,-42.5267,,RIBEIRÃO SANTO ANTÔNIO,2008-11-01,,Ativo,RHN,0
58826060,OLARIA,1,29.9,58,NOVA FRIBURGO,RIO DE JANEIRO,INEA-RJ,INFOPER,-22.3086,-42.5422,7.09,RIO CÔNEGO,2008-11-01,,Ativo,RHN,0
58826065,NOVA FRIBURGO,1,97.2,58,NOVA FRIBURGO,RIO DE JANEIRO,INEA-RJ,INFOPER,-22.2786,-42.5336,830.0,RIO BENGALA,2008-11-01,,Ativo,RHN,0
58826075,SÍTIO SANTA PAULA,1,35.8,58,NOVA FRIBURGO,RIO DE JANEIRO,INEA-RJ,INFOPER,-22.2681,-42.5725,,CÓRREGO D'ANTAS,2008-11-01,,Ativo,RHN,0
58846000,MANUEL DE MORAIS,1,1370.0,58,SANTA MARIA MADALEN,RIO DE JANEIRO,ANA,SGB-CPRM,-22.0242,-42.1344,249.0,RIO GRANDE,1935-12-01,,Ativo,RHN,0
58880001,SÃO FIDELIS,1,48900.0,58,SÃO FIDÉLIS,RIO DE JANEIRO,ANA,SGB-CPRM,-21.6453,-41.7522,26.0,RIO PARAÍBA DO SUL,1923-09-01,,Ativo,RHN,0
58910001,FAZENDA UMBAÚBAS,1,151.0,58,MURIAÉ,MINAS GERAIS,IGAM-MG,IGAM-MG,-21.0506,-42.5142,488.0,RIO PRETO,,,Ativo,RHN,0
58920000,PATROCÍNIO DO MURIAÉ,1,2660.0,58,PATROCÍNIO DO MURIA,MINAS GERAIS,ANA,SGB-CPRM,-21.1506,-42.2144,167.0,RIO MURIAÉ,1928-12-01,,Ativo,RHN,0
58921500,EUGENÓPOLIS,1,,58,EUGENÓPOLIS,MINAS GERAIS,IGAM-MG,IGAM-MG,-21.1208,-42.1969,196.0,RIO GAVIÃO,,,Ativo,RHN,0
58930000,CARANGOLA,1,773.0,58,CARANGOLA,MINAS GERAIS,ANA,SGB-CPRM,-20.74,-42.0239,399.0,RIO CARANGOLA,1928-12-01,,Ativo,RHN,0
58934000,PORCIUNCULA,1,1340.0,58,PORCIÚNCULA,RIO DE JANEIRO,ANA,SGB-CPRM,-20.9614,-42.0378,414.0,RIO CARANGOLA,1928-11-01,,Ativo,RHN,0
58940000,ITAPERUNA,1,5800.0,58,ITAPERUNA,RIO DE JANEIRO,ANA,SGB-CPRM,-21.2078,-41.8922,128.0,RIO MURIAÉ,1931-12-01,,Ativo,RHN,0
58960000,CARDOSO MOREIRA,1,7210.0,58,CARDOSO MOREIRA,RIO DE JANEIRO,ANA,SGB-CPRM,-21.4917,-41.6136,134.0,RIO MURIAÉ,1928-11-01,,Ativo,RHN,0
58974000,CAMPOS - PONTE MUNICIPAL,1,55700.0,58,CAMPO DOS GOYTACAZE,RIO DE JANEIRO,ANA,SGB-CPRM,-21.7514,-41.3244,20.0,RIO PARAÍBA DO SUL,1922-12-01,,Ativo,RHN,0
58986350,CAMPELO,1,512.3,58,CAMPO DOS GOYTACAZE,RIO DE JANEIRO,INEA-RJ,INEA-RJ,-21.6792,-41.2042,,LAGOA DO CAMPELO,2021-11-01,,Ativo,RHN,0
59001550,YACHT CLUB LAGOA DE CIMA,1,977.2,59,CAMPO DOS GOYTACAZE,RIO DE JANEIRO,INEA-RJ,INEA-RJ,-21.7775,-41.5206,,LAGOA DE CIMA,2021-11-01,,Ativo,RHN,0
59017980,LAGOA FEIA - FAZENDA MODELO CARÃES,1,1599.39,59,CAMPO DOS GOYTACAZE,RIO DE JANEIRO,INEA-RJ,INEA-RJ,-21.9722,-41.2747,,LAGOA FEIA,2021-11-01,,Ativo,RHN,0
59150500,LAGOA DE IMBOASSICA,1,,59,MACAÉ,RIO DE JANEIRO,INEA-RJ,INEA-RJ,-22.4106,-41.8122,,RIO IMBOACICA,2024-10-01,,Ativo,RHN,0
59192200,PORTAL SILVA JARDIM,1,128.33,59,SILVA JARDIM,RIO DE JANEIRO,INEA-RJ,INEA-RJ,-22.6428,-42.4133,,RIO CAPIVARI,2023-01-01,,Ativo,RHN,0
59222000,BARRA DE MARICÁ,1,,59,MARICÁ,RIO DE JANEIRO,INEA-RJ,INEA-RJ,-22.955,-42.8089,1.0,LAGOA DE MARICÁ,1979-12-01,,Ativo,RHN,0
59222100,MUMBUCA,1,,59,MARICÁ,RIO DE JANEIRO,INEA-RJ,INEA-RJ,-22.9067,-42.8144,,LAGOA DE MARICÁ,2016-06-01,,Ativo,RHN,0
59228050,COLUBANDÊ-ALCÂNTARA,1,,59,SÃO GONÇALO,RIO DE JANEIRO,INEA-RJ,INEA-RJ,-22.8492,-43.0089,,RIO ALCÂNTARA,2018-03-01,,Ativo,RHN,0
59228100,COLUMBANDÊ,1,22.3,59,SÃO GONÇALO,RIO DE JANEIRO,INEA-RJ,INEA-RJ,-22.8419,-43.0086,15.75,RIO COLUBANDÊ,1998-11-01,,Ativo,RHN,0
59235002,CACHOEIRAS DE MACACU,1,149.0,59,CACHOEIRAS DE MACAC,RIO DE JANEIRO,INEA-RJ,INEA-RJ,-22.4786,-42.6575,33.0,RIO MACACO,1976-11-01,,Ativo,RHN,0
59240900,PONTE DE TANGUÁ,1,235.0,59,TANGUÁ,RIO DE JANEIRO,INEA-RJ,INEA-RJ,-22.7275,-42.7264,28.48,RIO CACERIBÚ,1998-12-01,,Ativo,RHN,0
59241200,RETA NOVA,1,291.0,59,ITABORAÍ,RIO DE JANEIRO,INEA-RJ,INEA-RJ,-22.7128,-42.8075,26.08,RIO CACERIBÚ,1998-10-01,,Ativo,RHN,0
59242000,DUAS BARRAS,1,83.1,59,DUAS BARRAS,RIO DE JANEIRO,INEA-RJ,INEA-RJ,-22.4383,-42.7611,35.0,RIO GUAPIAÇU,1976-10-01,1993-04-01,Ativo,RHN,0
59245002,QUIZANGA,1,353.0,59,CACHOEIRAS DE MACAC,RIO DE JANEIRO,INEA-RJ,INEA-RJ,-22.5644,-42.8492,9.0,RIO GUAPIAÇU,1976-11-01,,Ativo,RHN,0
59245200,ICONHA (ORINDI),1,47.2,59,MAGÉ,RIO DE JANEIRO,INEA-RJ,INEA-RJ,-22.5478,-42.8981,12.0,RIO ICONHA,1976-11-01,,Ativo,RHN,0
59248900,BARRAGEM DA CEDAE,1,1070.0,59,ITABORAÍ,RIO DE JANEIRO,INEA-RJ,INEA-RJ,-22.6569,-42.9317,10.7,CANAL DE IMUNANA,1998-10-01,,Ativo,RHN,0
59250100,PONTE RJ-10,1,,59,SÃO PEDRO DA ALDEIA,RIO DE JANEIRO,INEA-RJ,INEA-RJ,-22.8672,-42.0469,5.17,LAGOA DE ARARUAMA,1977-03-01,,Ativo,RHN,0
59250900,PARQUE SÃO MIGUEL,1,88.7,59,MAGÉ,RIO DE JANEIRO,INEA-RJ,INEA-RJ,-22.6147,-43.0389,13.82,RIO MAJE OU SANTO ALEIXO,1998-10-01,,Ativo,RHN,0
59252000,ESTRADA DA CONCEIÇÃO,1,33.6,59,MAGÉ,RIO DE JANEIRO,INEA-RJ,INEA-RJ,-22.6097,-43.1022,23.44,RIO SURUI,1998-12-01,,Ativo,RHN,0
59270000,SANTA CRUZ DA SERRA,1,92.8,59,DUQUE DE CAXIAS,RIO DE JANEIRO,INEA-RJ,INEA-RJ,-22.6369,-43.2883,7.0,RIO SARACURUNA,1976-11-01,,Ativo,RHN,0
59279000,CLUBE CATAVENTO,1,87.4,59,NOVA IGUAÇU,RIO DE JANEIRO,INEA-RJ,INFOPER,-22.6508,-43.4158,8.06,RIO IGUAÇU,1998-10-01,,Ativo,RHN,0
59284200,CIEP 100,1,27.7,59,BELFORD ROXO,RIO DE JANEIRO,INEA-RJ,INFOPER,-22.7794,-43.3994,18.63,CANAL DE SARAPUI,1998-09-01,,Ativo,RHN,0
59305027,ACARI,1,,59,RIO DE JANEIRO,RIO DE JANEIRO,INEA-RJ,ÁGUA E SOLO,-22.8225,-43.35,,RIO ACARI,2024-05-01,,Ativo,RHN,0
59305028,AV. AUTOMÓVEL CLUBE,1,92.0,59,RIO DE JANEIRO,RIO DE JANEIRO,INEA-RJ,INFOPER,-22.8219,-43.3511,6.0,RIO ACARI,1969-11-01,1986-12-01,Ativo,RHN,0
59305035,ESTRADA VELHA DA PAVUNA,1,20.7,59,RIO DE JANEIRO,RIO DE JANEIRO,INEA-RJ,INEA-RJ,-22.8731,-43.2681,6.37,RIO FARIA TIMBÓ,1998-09-01,,Ativo,RHN,0
59305071,CAPELA MAYRINK,1,2.2,59,RIO DE JANEIRO,RIO DE JANEIRO,INEA-RJ,INEA-RJ,-22.9578,-43.2778,458.0,RIO CACHOEIRA,1976-03-01,,Ativo,RHN,0
59373000,VILA PEREQUÊ,1,674.0,59,ANGRA DOS REIS,RIO DE JANEIRO,INEA-RJ,INFOPER,-23.0025,-44.5433,7.09,RIO MAMBUCABA,2009-09-01,,Ativo,RHN,0
60012110,PONTE VICENTE GOULART JUSANTE,1,,60,COROMANDEL,MINAS GERAIS,IGAM-MG,IGAM-MG,-18.2722,-47.0986,,RIO PARANAÍBA,,,Ativo,RHN,0
60101100,ABADIA DOS DOURADOS,1,,60,ABADIA DOS DOURADOS,MINAS GERAIS,IGAM-MG,IGAM-MG,-18.4919,-47.4069,771.0,RIO DOURADOS,,,Ativo,RHN,0
60134000,BARRA DOS PERDIZES,1,,60,DOURADOQUARA,MINAS GERAIS,IGAM-MG,IGAM-MG,-18.5206,-47.5578,699.0,RIO PERDIZES,,,Ativo,RHN,0
60150050,ESTRELA DO SUL,1,,60,ESTRELA DO SUL,MINAS GERAIS,IGAM-MG,IGAM-MG,-18.7378,-47.6908,757.0,RIO BAGAGEM,,,Ativo,RHN,0
60180054,RIO PARANOÁ,1,,60,BRASÍLIA,DISTRITO FEDERAL,ADASA-DF,ADASA-DF,-15.8056,-47.7069,875.0,RIO PARANOÁ,2022-09-01,,Ativo,RHN,0
60300900,PIANCÓ I - MONTANTE CAPTAÇÃO,1,118.86,60,ANÁPOLIS,GOIÁS,SANEAGO,SANEAGO,-19.1558,-48.9353,976.0,CÓRREGO PIANCÓ,2020-10-01,,Ativo,RHN,0
60309700,ESTAÇÃO - DONA ELIETE,1,,60,ANÁPOLIS,GOIÁS,CIMEHGO,CIMEHGO,-16.1775,-48.9642,702.0,CÓRREGO PIANCÓ,2024-06-01,2024-06-01,Ativo,RHN,0
60310050,PIANCÓ II - JUSANTE CAPTAÇÃO,1,244.71,60,ANÁPOLIS,GOIÁS,SANEAGO,SANEAGO,-16.1572,-48.9358,914.0,CÓRREGO PIANCÓ,2014-09-01,,Ativo,RHN,0
60310100,CAPTAÇÃO MEIA PONTE GOIÂNIA,1,1630.95,60,GOIÂNIA,GOIÁS,SANEAGO,SANEAGO,-16.5689,-49.3283,698.0,RIO MEIA PONTE,2018-06-01,,Ativo,RHN,0
60310200,CAPIVARI - MMONTANTE CAPTAÇÃO,1,334.225,60,ABADIÂNIA,GOIÁS,SANEAGO,SANEAGO,-16.1003,-48.8681,901.0,RIO CAPIVARI,2020-10-01,,Ativo,RHN,0
60359090,ARAGUARI,1,,60,ARAGUARI,MINAS GERAIS,IGAM-MG,IGAM-MG,-18.6383,-48.4383,538.0,RIO ARAGUARI,,,Ativo,RHN,0
60434600,DESCOBERTO JUS. CAPTAÇÃO BARROCÃO,1,,60,BRASÍLIA,DISTRITO FEDERAL,CAESB,CAESB,-15.6344,-48.1842,1094.0,RIO DESCOBERTO,2014-10-01,,Ativo,RHN,0
60435000,DESCOBERTO - CHACARA 89,1,113.23,60,BRASÍLIA,DISTRITO FEDERAL,CAESB,CAESB,-15.7089,-48.2339,1034.0,RIO DESCOBERTO,1978-05-01,,Ativo,RHN,0
60435001,DESCOBERTO - CHACARA 89 (ADASA),1,113.23,60,BRASÍLIA,DISTRITO FEDERAL,ADASA-DF,ADASA-DF,-15.7089,-48.2339,1034.0,RIO DESCOBERTO,2017-01-01,,Ativo,RHN,0
60435200,RODEADOR - DF 435,1,111.96,60,BRASÍLIA,DISTRITO FEDERAL,CAESB,CAESB,-15.725,-48.1683,1035.0,RIO RODEADOR,1978-06-01,,Ativo,RHN,0
60435201,RODEADOR - DF 435 (ADASA),1,111.96,60,BRASÍLIA,DISTRITO FEDERAL,ADASA-DF,ADASA-DF,-15.725,-48.1683,1035.0,RIO RODEADOR,2017-01-01,,Ativo,RHN,0
60435500,DESCOBERTO - BARRAGEM,1,433.37,60,BRASÍLIA,DISTRITO FEDERAL,CAESB,CAESB,-15.7778,-48.2314,1032.0,RIO DESCOBERTO,1987-03-01,,Ativo,RHN,0
60435501,DESCOBERTO - BARRAGEM (ADASA),1,433.37,60,BRASÍLIA,DISTRITO FEDERAL,ADASA-DF,ADASA-DF,-15.7778,-48.2314,1032.0,RIO DESCOBERTO,2014-11-01,,Ativo,RHN,0
60472235,PIPIRIPAU,1,127.0,60,BRASÍLIA,DISTRITO FEDERAL,ANA,SGB-CPRM,-15.6144,-47.5456,1008.0,RIO PIPIRIPAU,2009-09-01,,Ativo,RHN,0
60472240,PIPIRIPAU MONTANTE CANAL,1,184.08,60,PLANALTINA,DISTRITO FEDERAL,CAESB,CAESB,-15.6397,-47.5742,980.0,RIO PIPIRIPAU,2001-11-01,,Ativo,RHN,0
60472241,PIPIRIPAU MONTANTE CANAL (ADASA),1,184.08,60,PLANALTINA,DISTRITO FEDERAL,ADASA-DF,ADASA-DF,-15.6397,-47.5742,980.0,RIO PIPIRIPAU,2018-05-01,,Ativo,RHN,0
60473000,PIPIRIPAU FRINOCAP - DF 230,1,214.99,60,PLANALTINA,DISTRITO FEDERAL,CAESB,CAESB,-15.6572,-47.6247,925.0,RIO PIPIRIPAU,1970-11-01,,Ativo,RHN,0
60473001,PIPIRIPAU FRINOCAP - DF 230 (ADASA),1,214.99,60,PLANALTINA,DISTRITO FEDERAL,ADASA-DF,ADASA-DF,-15.6572,-47.6247,925.0,RIO PIPIRIPAU,2017-07-01,,Ativo,RHN,0
60477100,SANTA MARIA - BARRAGEM,1,106.13,60,BRASÍLIA,DISTRITO FEDERAL,CAESB,CAESB,-15.6689,-47.9536,1075.0,LAGO SANTA MARIA,1987-02-01,,Ativo,RHN,0
60477101,SANTA MARIA - BARRAGEM (ADASA),1,106.13,60,BRASÍLIA,DISTRITO FEDERAL,ADASA-DF,ADASA-DF,-15.6689,-47.9536,1075.0,LAGO SANTA MARIA,2014-11-01,,Ativo,RHN,0
60477380,RIBEIRÃO TORTO JUSANTE CÓRREGO URUBÚ,1,245.0,60,BRASÍLIA,DISTRITO FEDERAL,ADASA-DF,ADASA-DF,-15.7219,-47.8681,,RIBEIRÃO DO TORTO,2016-06-01,,Ativo,RHN,0
60478200,MONTANTE ZOOLÓGICO - EPIA 003 - RIACHO FUNDO,1,171.26,60,BRASÍLIA,DISTRITO FEDERAL,CAESB,CAESB,-15.8594,-47.9419,1005.0,RIACHO FUNDO,1978-05-01,,Ativo,RHN,0
60478201,MONT ZOOLOGICO-EPIA 003-RIACHO FUNDO (ADASA),1,171.26,60,BRASÍLIA,DISTRITO FEDERAL,ADASA-DF,ADASA-DF,-15.8594,-47.9419,1005.0,RIACHO FUNDO,2016-02-01,,Ativo,RHN,0
60478250,ESTAÇÃO TESTE_F,1,13.0,60,BRASÍLIA,DISTRITO FEDERAL,ANA,ANA,-15.8167,-47.95,,RIACHO FUNDO,2020-01-01,,Ativo,RHN,0
60478480,CAPTAÇÃO DA SANEAGO,1,49.0,60,VALPARAÍSO DE GOIÁS,GOIÁS,ANA,SGB-CPRM,-16.0647,-47.9425,,RIO SAIA VELHA,2003-05-01,,Ativo,RHN,0
60478482,FAL-UNB,1,11.9,60,BRASÍLIA,DISTRITO FEDERAL,ANA,UNB,-15.945,-47.9383,1066.0,CÓRREGO CAPETINGA,2014-01-01,,Ativo,RHN,0
60478493,CÓRREGO TAQUARA,1,40.0,60,BRASÍLIA,DISTRITO FEDERAL,ANA,UNB,-15.9111,-47.9089,,CÓRREGO TAQUARA,2013-11-01,,Ativo,RHN,0
60479230,BARRAGEM LAGO PARANOÁ,1,,60,BRASÍLIA,DISTRITO FEDERAL,ADASA-DF,ADASA-DF,-15.7972,-47.7842,,LAGO DO PARANOÁ,2014-03-01,,Ativo,RHN,0
60480052,FAZENDA ENCONTRO DAS ÁGUAS,1,,60,BRASÍLIA,DISTRITO FEDERAL,ADASA-DF,ADASA-DF,-15.8056,-47.7069,875.0,RIO PARANOÁ,2022-09-01,,Ativo,RHN,0
60492200,BARTOLOMEU - FAZENDA RECREIO,1,2360.0,60,CIDADE OCIDENTAL,GOIÁS,ADASA-DF,ADASA-DF,-16.0633,-47.6797,,RIO SÃO BARTOLOMEU,2009-04-01,,Ativo,RHN,0
60601000,CAPTAÇÃO - MONTANTE,1,126.95,60,ITAGUARÍ,GOIÁS,SANEAGO,SANEAGO,-15.9292,-49.5989,648.0,RIBEIRÃO DE TELHA,2018-04-01,,Ativo,RHN,0
