Name,Code,Type,DrainArea,SubBasin,City,State,Responsib,Latitude,Longitude,StartDate,EndDate,NYD,MD,N_YWOMD,YWMD,QScore,QLabel,IsStudy
TABATINGA,10100000,1,874000.0,10,TABATINGA,AMAZONAS,ANA,-4.2347,-69.9447,1995-01-01,2017-04-30,23,3.0,17,26.1,0.6795,Moderada,0
PALMEIRAS DO JAVARI,10200000,1,16500.0,10,ATALAIA DO NORTE,AMAZONAS,ANA,-5.1389,-72.8136,1982-11-22,2020-01-31,39,5.2,25,35.9,0.8963,Excelente,0
SANTA MARIA/FLORES,10300000,1,25200.0,10,ATALAIA DO NORTE,AMAZONAS,ANA,-4.5397,-71.4003,1980-09-24,2020-01-31,41,37.2,9,78.0,0.7168,Moderada,0
ESTIRÃO DO REPOUSO,10500000,1,61400.0,10,ATALAIA DO NORTE,AMAZONAS,ANA,-4.3408,-70.9056,1980-09-22,2020-01-31,41,2.8,31,24.4,0.9232,Excelente,0
SERINGAL DO ITUI,10800000,1,19200.0,10,ATALAIA DO NORTE,AMAZONAS,ANA,-4.7333,-70.3,1980-09-28,1992-02-06,13,3.1,10,23.1,0.4439,Limitada,0
LADÁRIO,10900000,1,19200.0,10,ATALAIA DO NORTE,AMAZONAS,ANA,-4.7333,-70.3,1979-02-04,1994-06-07,16,2.1,13,18.8,0.4874,Limitada,0
LADÁRIO - JUSANTE,10910000,1,36900.0,10,ATALAIA DO NORTE,AMAZONAS,ANA,-4.5836,-70.2644,1997-06-21,2020-01-31,24,2.5,17,29.2,0.725,Moderada,0
SÃO PAULO DE OLIVENÇA,11400000,1,1010000.0,11,SÃO PAULO DE OLIVEN,AMAZONAS,ANA,-3.4569,-68.9119,1973-07-18,2019-11-30,47,2.6,37,21.3,0.9144,Excelente,0
IPIRANGA NOVO,11444900,1,106000.0,11,SANTO ANTÔNIO DO IÇ,AMAZONAS,ANA,-2.9297,-69.6931,1993-04-01,2015-09-30,23,7.5,9,60.9,0.6325,Moderada,0
IPIRANGA VELHO,11450000,1,107000.0,11,SANTO ANTÔNIO DO IÇ,AMAZONAS,ANA,-2.9417,-69.5228,1979-02-10,2011-10-31,33,13.2,12,63.6,0.6833,Moderada,0
SANTO ANTÔNIO DO IÇÁ,11500000,1,1130000.0,11,SANTO ANTÔNIO DO IÇ,AMAZONAS,ANA,-3.1017,-67.9356,1973-07-14,2019-11-30,47,2.7,34,27.7,0.9138,Excelente,0
COLOCAÇÃO CAXIAS NOVO,12100000,1,10700.0,12,JUTAÍ,AMAZONAS,ANA,-4.6514,-68.3244,1982-07-15,2016-09-27,35,20.6,14,60.0,0.7139,Moderada,0
CONCEIÇÃO (EX. ILHA DA NOVA SORTE),12150000,1,17600.0,12,JUTAÍ,AMAZONAS,ANA,-4.8967,-68.6633,1999-05-01,2019-12-31,21,11.2,10,52.4,0.6253,Moderada,0
TANIBUCA,12180000,1,12700.0,12,JUTAÍ,AMAZONAS,ANA,-4.745,-68.1353,2004-02-01,2019-10-31,16,29.2,1,93.8,0.4548,Limitada,0
BARREIRA ALTA,12200000,1,35500.0,12,JUTAÍ,AMAZONAS,ANA,-4.2211,-67.8925,1980-11-01,2008-09-20,29,18.1,13,55.2,0.5739,Moderada,0
BARREIRA ALTA NOVA (MAROÁ),12210000,1,36200.0,12,JUTAÍ,AMAZONAS,ANA,-4.5711,-68.0111,2019-07-01,2019-09-30,1,0.0,0,100.0,0.4425,Limitada,0
BARREIRA BRANCA,12230000,1,11047.0,12,JUTAÍ,AMAZONAS,ANA,-4.3256,-67.3444,1985-09-23,2001-10-31,17,39.7,7,58.8,0.2743,Limitada,0
PORTO SEGURO,12240000,1,64400.0,12,JUTAÍ,AMAZONAS,ANA,-3.3372,-67.4917,1997-05-16,2019-12-31,23,3.5,15,34.8,0.6965,Moderada,0
FOZ DO BREU,12360000,1,7690.0,12,MARECHAL THAUMATURG,ACRE,ANA,-9.4097,-72.7158,1982-06-20,2016-05-25,35,7.0,18,48.6,0.7955,Excelente,0
THAUMATURGO,12370000,1,16100.0,12,MARECHAL THAUMATURG,ACRE,ANA,-8.9458,-72.7847,1981-04-13,2016-05-22,36,10.3,20,44.4,0.7882,Excelente,0
PORTO WALTER,12390000,1,22200.0,12,PORTO WALTER,ACRE,ANA,-8.2672,-72.7411,1997-05-17,2016-05-26,20,20.7,6,70.0,0.5258,Moderada,0
SERRA DO MOA,12400000,1,1030.0,12,MÂNCIO LIMA,ACRE,ANA,-7.4483,-73.6644,1973-05-08,2016-05-13,44,8.2,25,43.2,0.8508,Excelente,0
BASE SÃO SALVADOR,12420000,1,5720.0,12,MÂNCIO LIMA,ACRE,ANA,-7.4125,-73.1914,2005-09-08,2015-09-30,11,64.6,0,100.0,0.2275,Limitada,0
CRUZEIRO DO SUL,12500000,1,37800.0,12,CRUZEIRO DO SUL,ACRE,ANA,-7.6333,-72.6603,1967-08-23,2016-05-17,50,7.9,39,22.0,0.8526,Excelente,0
SERINGAL BOM FUTURO,12510000,1,3400.0,12,TARAUACÁ,ACRE,ANA,-7.8492,-72.0547,1997-08-29,2016-05-09,20,15.7,10,50.0,0.5558,Moderada,0
IPIXUNA,12520000,1,56100.0,12,IPIXUNA,AMAZONAS,ANA,-7.0556,-71.6892,1981-10-10,2012-04-30,32,1.7,24,25.0,0.7498,Moderada,0
FAZENDA PARANACRE,12530000,1,2070.0,12,TARAUACÁ,ACRE,ANA,-7.9511,-71.4822,1996-06-16,2016-05-08,21,16.2,9,57.1,0.5653,Moderada,0
SERINGAL SANTO AMARO,12540000,1,7350.0,12,EIRUNEPÉ,AMAZONAS,ANA,-7.2667,-70.9833,1997-12-05,2015-08-31,19,6.5,10,47.4,0.5885,Moderada,0
EIRUNEPÉ - MONTANTE,12550000,1,77300.0,12,EIRUNEPÉ,AMAZONAS,ANA,-6.6844,-69.8811,1979-02-22,2015-08-28,37,9.9,21,43.2,0.7931,Excelente,0
SERINGAL SÃO LUIZ,12560000,1,5360.0,12,TARAUACÁ,ACRE,ANA,-8.6181,-71.5517,1997-02-14,2012-01-31,16,1.0,8,50.0,0.554,Moderada,0
TARAUACÁ - JUSANTE,12600001,1,15600.0,12,TARAUACÁ,ACRE,ANA,-8.1458,-70.7153,1981-04-24,2016-05-03,36,30.3,14,61.1,0.6682,Moderada,0
SERINGAL SANTA HELENA,12640000,1,12800.0,12,FEIJÓ,ACRE,ANA,-8.6858,-70.5511,1997-02-08,2012-04-30,16,3.3,9,43.8,0.5402,Moderada,0
FEIJÓ,12650000,1,17000.0,12,FEIJÓ,ACRE,ANA,-8.1636,-70.3564,1980-09-25,2016-05-04,37,13.7,20,45.9,0.7803,Excelente,0
ENVIRA,12680000,1,49700.0,12,ENVIRA,AMAZONAS,ANA,-7.4281,-70.0225,1978-01-20,2015-08-28,38,10.0,25,34.2,0.805,Excelente,0
SANTOS DUMONT,12700000,1,144000.0,12,ITAMARATI,AMAZONAS,ANA,-6.4403,-68.2461,1981-04-16,2019-11-30,39,7.1,26,33.3,0.8749,Excelente,0
GAVIÃO,12840000,1,164000.0,12,CARAUARI,AMAZONAS,ANA,-4.8392,-66.8506,1972-06-22,2017-05-31,46,7.2,31,32.6,0.8668,Excelente,0
VILA BITTENCOURT,12845000,1,206000.0,12,JAPURÁ,AMAZONAS,ANA,-1.3947,-69.4283,1980-01-26,2020-01-31,41,3.1,28,31.7,0.9214,Excelente,0
ACANAUI,12850000,1,249000.0,12,JAPURÁ,AMAZONAS,ANA,-1.8211,-66.6092,1973-07-08,2007-12-31,35,0.6,32,8.6,0.7439,Moderada,0
ABACATAL,12860000,1,,12,JAPURÁ,AMAZONAS,ANA,-1.6,-66.55,1973-07-04,1998-03-31,26,42.0,12,53.8,0.373,Limitada,0
BARREIRINHA,12870000,1,3880.0,12,FONTE BOA,AMAZONAS,ANA,-2.1003,-66.4169,1982-06-19,2013-04-30,32,2.5,25,21.9,0.755,Excelente,0
FAZENDA BOA ESPERANÇA,12875000,1,1720.0,12,TEFÉ,AMAZONAS,ANA,-5.2386,-67.2339,1982-06-18,1997-03-10,16,11.4,6,62.5,0.4316,Limitada,0
ESTIRÃO DA SANTA CRUZ,12880000,1,13700.0,12,TEFÉ,AMAZONAS,ANA,-4.2922,-65.2017,1981-02-10,2019-12-31,39,19.6,9,76.9,0.7999,Excelente,0
SERINGAL MOREIRA,13100000,1,8200.0,13,COARI,AMAZONAS,ANA,-5.1092,-63.9847,1980-12-01,2019-12-31,40,14.4,16,60.0,0.8436,Excelente,0
ITAPÉUA,13150000,1,1780000.0,13,COARI,AMAZONAS,ANA,-4.0578,-63.0278,1971-04-04,2017-12-31,47,3.8,36,23.4,0.8872,Excelente,0
COARI,13150003,1,1780000.0,13,COARI,AMAZONAS,ANA,-4.0856,-63.0833,2015-02-28,2018-11-30,4,13.6,0,100.0,0.3884,Limitada,0
SANTA ROSA DO PURUS,13170000,1,17400.0,13,SANTA ROSA DO PURUS,ACRE,ANA,-9.4311,-70.4933,1982-12-01,1988-07-31,7,0.0,5,28.6,0.3875,Limitada,0
FAZENDA JUSSARA,13175000,1,9200.0,13,MANOEL URBANO,ACRE,ANA,-9.35,-69.9167,1982-07-30,1989-02-14,8,8.1,4,50.0,0.3514,Limitada,0
MANOEL URBANO,13180000,1,32800.0,13,MANOEL URBANO,ACRE,ANA,-8.8886,-69.275,1981-10-01,2019-10-31,39,27.7,18,53.8,0.7513,Excelente,0
SERINGAL PROVIDÊNCIA,13200000,1,36400.0,13,BOCA DO ACRE,AMAZONAS,ANA,-8.9444,-68.6292,1975-05-07,1983-04-20,9,3.8,6,33.3,0.3897,Limitada,0
SERINGAL SÃO JOSÉ,13300000,1,11200.0,13,SENA MADUREIRA,ACRE,ANA,-9.3744,-68.7239,1981-09-24,2019-07-31,39,29.8,8,79.5,0.7387,Moderada,0
SENA MADUREIRA,13310000,1,18000.0,13,SENA MADUREIRA,ACRE,ANA,-9.0678,-68.6531,2007-05-01,2019-09-29,13,24.6,3,76.9,0.4449,Limitada,0
BOCA DO CAFEZAL,13400000,1,6440.0,13,SENA MADUREIRA,ACRE,ANA,-9.06028,-68.6533,1972-07-01,1975-01-08,4,0.0,2,50.0,0.35,Limitada,0
SERINGAL GUARANY,13405000,1,6110.0,13,SENA MADUREIRA,ACRE,ANA,-9.1103,-68.9933,1983-01-18,2012-10-31,30,12.9,12,60.0,0.6576,Moderada,0
SERINGAL DA CARIDADE,13410000,1,63100.0,13,BOCA DO ACRE,AMAZONAS,ANA,-9.0439,-68.5772,1967-08-01,2019-09-30,53,5.2,43,18.9,0.8988,Excelente,0
ALDEIA DOS PATOS,13439000,1,2100.0,13,ASSIS BRASIL,ACRE,ANA,-10.9261,-69.9233,2018-03-03,2019-10-31,2,39.5,0,100.0,0.218,Limitada,0
ASSIS BRASIL,13450000,1,3760.0,13,ASSIS BRASIL,ACRE,ANA,-10.9436,-69.5656,1983-01-01,2019-09-30,37,18.6,17,54.1,0.7809,Excelente,0
BRASILÉIA,13470000,1,7020.0,13,BRASILÉIA,ACRE,ANA,-11.0178,-68.745,1982-07-22,2019-09-30,38,7.7,25,34.2,0.8588,Excelente,0
EPITACIOLÂNDIA (Colônia São Bento),13490000,1,8280.0,13,EPITACIOLÂNDIA,ACRE,ANA,-10.8956,-68.6081,2015-10-25,2017-10-31,3,43.6,0,100.0,0.1859,Limitada,0
COLÔNIA DOLORES (XAPURI),13540000,1,3730.0,13,XAPURI,ACRE,ANA,-10.5606,-68.7047,2015-06-27,2019-10-31,5,16.6,0,100.0,0.3929,Limitada,0
XAPURI,13550000,1,8270.0,13,XAPURI,ACRE,ANA,-10.6511,-68.5075,1967-09-01,2019-09-30,53,9.9,30,43.4,0.8706,Excelente,0
FAZENDA PERSEVERANÇA,13560000,1,13100.0,13,XAPURI,ACRE,ANA,-10.6383,-68.4253,1996-10-13,1997-01-19,2,0.0,0,100.0,0.325,Limitada,0
CAPIXABA (Colocação São José),13568000,1,15000.0,13,CAPIXABA,ACRE,ANA,-10.3886,-67.9353,2015-06-23,2019-10-31,5,43.2,0,100.0,0.2333,Limitada,0
ESPALHA (Seringal Belo Horizonte),13572000,1,3210.0,13,RIO BRANCO,ACRE,ANA,-10.005,-68.5294,2015-06-17,2019-10-31,5,0.3,2,60.0,0.4907,Limitada,0
RIO ROLA (Ramal do Barro Alto),13578000,1,6520.0,13,RIO BRANCO,ACRE,ANA,-10.0567,-67.9639,2015-06-13,2019-07-31,5,7.1,0,100.0,0.4499,Limitada,0
FAZENDA SANTO AFONSO,13580000,1,6330.0,13,RIO BRANCO,ACRE,ANA,-10.0908,-67.9006,1998-06-01,2010-05-18,13,8.8,4,69.2,0.4497,Limitada,0
RIO BRANCO,13600002,1,23500.0,13,RIO BRANCO,ACRE,ANA,-9.975,-67.8008,1967-08-08,2019-09-30,53,3.9,40,24.5,0.9066,Excelente,0
FLORIANO PEIXOTO,13650000,1,34400.0,13,BOCA DO ACRE,AMAZONAS,ANA,-9.0667,-67.3969,1967-07-25,2015-12-11,49,14.9,24,51.0,0.8006,Excelente,0
VALPARAÍSO - MONTANTE,13710000,1,105000.0,13,BOCA DO ACRE,AMAZONAS,ANA,-8.6506,-67.3681,1975-02-28,1986-12-31,12,0.0,11,8.3,0.45,Limitada,0
VALPARAÍSO - MONTANTE,13710001,1,105000.0,13,BOCA DO ACRE,AMAZONAS,ANA,-8.6533,-67.375,1975-02-26,2016-05-31,42,5.3,28,33.3,0.8682,Excelente,0
SERINGAL SÃO PEDRO,13730000,1,23200.0,13,PAUINI,AMAZONAS,ANA,-7.5167,-67.6,1980-09-01,1984-05-31,5,0.0,3,40.0,0.3625,Limitada,0
FAZENDA BORANGABA,13740000,1,23300.0,13,PAUINI,AMAZONAS,ANA,-7.54,-67.4778,1984-12-12,2016-05-31,33,25.0,11,66.7,0.6625,Moderada,0
SERINGAL FORTALEZA,13750000,1,154000.0,13,PAUINI,AMAZONAS,ANA,-7.7156,-66.9997,1967-07-15,2016-05-26,50,0.5,45,10.0,0.897,Excelente,0
CACHOEIRA FORTALEZA,13840000,1,9710.0,13,LÁBREA,AMAZONAS,ANA,-8.8611,-66.1833,1978-01-01,1982-07-31,5,18.7,2,60.0,0.2503,Limitada,0
CACHOEIRA FORTALEZA - JUSANTE,13840001,1,9750.0,13,LÁBREA,AMAZONAS,ANA,-8.8194,-66.1139,1984-08-27,1996-02-29,13,22.5,4,69.2,0.3275,Limitada,0
CACHOEIRA DO MEIO,13845000,1,5580.0,13,LÁBREA,AMAZONAS,ANA,-8.8,-66.1333,1980-07-24,1987-05-31,8,0.0,6,25.0,0.4,Limitada,0
GAIVOTÃO,13848000,1,16700.0,13,LÁBREA,AMAZONAS,ANA,-8.7833,-65.9167,1980-07-26,1987-08-29,8,0.0,6,25.0,0.4,Limitada,0
JURENÉ,13849000,1,17300.0,13,LÁBREA,AMAZONAS,ANA,-8.7675,-65.8844,1991-10-10,2013-03-31,23,37.7,7,69.6,0.4313,Limitada,0
SÃO GREGÓRIO,13850000,1,41500.0,13,LÁBREA,AMAZONAS,ANA,-7.5517,-64.93,1967-06-27,1974-12-26,8,0.0,6,25.0,0.4,Limitada,0
LÁBREA,13870000,1,226000.0,13,LÁBREA,AMAZONAS,ANA,-7.2581,-64.7975,1931-11-11,2016-06-30,86,6.3,63,26.7,0.8622,Excelente,0
CANUTAMA,13880000,1,236000.0,13,CANUTAMA,AMAZONAS,ANA,-6.5389,-64.3858,1973-01-01,2016-06-24,44,0.1,41,6.8,0.8994,Excelente,0
CRISTO,13885000,1,7030.0,13,LÁBREA,AMAZONAS,ANA,-7.4644,-64.2433,1975-07-04,2016-06-30,42,32.9,22,47.6,0.7026,Moderada,0
FAZENDA BOA VISTA,13885500,1,18600.0,13,TAPAUÁ,AMAZONAS,ANA,-6.4667,-65.9167,1982-09-01,1983-06-30,2,56.8,0,100.0,0.025,Limitada,0
BACABA,13886000,1,37800.0,13,TAPAUÁ,AMAZONAS,ANA,-6.3192,-64.8861,1979-12-12,2016-06-27,38,24.6,19,50.0,0.7274,Moderada,0
CASTANHAL PATÚ,13900000,1,315000.0,13,TAPAUÁ,AMAZONAS,ANA,-5.6667,-64.3333,1972-06-10,1975-09-19,4,0.0,2,50.0,0.35,Limitada,0
BEABÁ (CARIUACANGA),13950000,1,355000.0,13,TAPAUÁ,AMAZONAS,ANA,-4.8592,-62.8686,1972-01-01,1975-12-31,4,0.0,4,0.0,0.35,Limitada,0
ARUMÃ - JUSANTE,13962000,1,366000.0,13,BERURI,AMAZONAS,ANA,-4.7286,-62.1453,2007-05-01,2016-04-30,10,5.4,5,50.0,0.4926,Limitada,0
BERURI,13990000,1,378000.0,13,BERURI,AMAZONAS,ANA,-3.8989,-61.3742,2015-01-01,2018-05-31,4,8.4,0,100.0,0.4196,Limitada,0
MANACAPURU,14100000,1,2200000.0,14,MANACAPURU,AMAZONAS,ANA,-3.3106,-60.6094,1972-01-02,2018-05-31,47,0.3,44,6.4,0.9182,Excelente,0
CUCUÍ,14110000,1,74300.0,14,SÃO GABRIEL DA CACH,AMAZONAS,ANA,1.2153,-66.8525,1980-07-22,2019-04-30,40,0.2,37,7.5,0.9288,Excelente,0
SÃO JOAQUIM,14215000,1,3330.0,14,SÃO GABRIEL DA CACH,AMAZONAS,ANA,1.7164,-69.3844,2009-09-06,2018-04-30,10,32.8,5,50.0,0.3482,Limitada,0
LOURO POÇO,14220000,1,4600.0,14,SÃO GABRIEL DA CACH,AMAZONAS,ANA,1.3392,-68.6858,1982-08-01,2008-10-31,27,2.0,17,37.0,0.6455,Moderada,0
MISSÃO IÇANA,14230000,1,23600.0,14,SÃO GABRIEL DA CACH,AMAZONAS,ANA,1.0744,-67.5947,1980-07-16,2019-06-30,40,0.0,38,5.0,0.93,Excelente,0
SÃO FELIPE,14250000,1,124000.0,14,SÃO GABRIEL DA CACH,AMAZONAS,ANA,0.3717,-67.3128,1977-12-08,2018-06-30,42,0.0,40,4.8,0.92,Excelente,0
UARAÇU,14260000,1,40200.0,14,SÃO GABRIEL DA CACH,AMAZONAS,ANA,0.4769,-69.1281,1977-12-02,2018-06-30,42,0.2,38,9.5,0.9188,Excelente,0
TARAQUÁ,14280001,1,44300.0,14,SÃO GABRIEL DA CACH,AMAZONAS,ANA,0.1303,-68.5386,1977-05-22,2019-04-30,43,0.1,40,7.0,0.9294,Excelente,0
PARI CACHOEIRA,14300000,1,1970.0,14,SÃO GABRIEL DA CACH,AMAZONAS,ANA,0.2494,-69.785,1980-07-07,2019-04-30,40,1.3,34,15.0,0.9222,Excelente,0
CUNURI,14310000,1,4250.0,14,SÃO GABRIEL DA CACH,AMAZONAS,ANA,0.2094,-69.3781,1982-08-14,2019-04-30,38,0.5,34,10.5,0.902,Excelente,0
TUMBIRA,14325000,1,10800.0,14,SÃO GABRIEL DA CACH,AMAZONAS,ANA,-0.3444,-67.5358,1999-12-26,2019-06-30,21,0.0,19,9.5,0.6925,Moderada,0
CURICURIARI,14330000,1,194000.0,14,SÃO GABRIEL DA CACH,AMAZONAS,ANA,-0.2006,-66.8022,1977-11-27,2019-04-30,43,0.3,39,9.3,0.9282,Excelente,0
JUSANTE DA CACHOEIRA DO CAJU,14350000,1,13100.0,14,SÃO GABRIEL DA CACH,AMAZONAS,ANA,-0.2461,-67.0092,1982-06-01,2019-04-29,38,0.3,34,10.5,0.9032,Excelente,0
MISSÃO MATURACÁ,14380000,1,886.0,14,SANTA IZABEL DO RIO,AMAZONAS,ANA,0.6194,-66.135,1999-12-08,2018-10-31,20,17.9,7,65.0,0.5626,Moderada,0
SERRINHA,14420000,1,293000.0,14,SANTA IZABEL DO RIO,AMAZONAS,ANA,-0.4819,-64.8289,1977-08-10,2018-03-31,42,0.3,39,7.1,0.9182,Excelente,0
CACHOEIRA ALIANÇA,14425000,1,5670.0,14,BARCELOS,AMAZONAS,ANA,-0.816667,-64.1667,1982-06-02,1987-07-28,6,9.3,3,50.0,0.3192,Limitada,0
VILA CONCEIÇÃO - MONTANTE,14428000,1,6590.0,14,BARCELOS,AMAZONAS,ANA,0.2275,-63.9883,2000-09-22,2019-04-30,20,0.9,16,20.0,0.6746,Moderada,0
VILA CONCEIÇÃO,14430000,1,6800.0,14,BARCELOS,AMAZONAS,ANA,0.13,-63.9606,1981-03-28,2000-09-20,20,1.8,17,15.0,0.5392,Moderada,0
POSTO AJURICABA,14440000,1,16900.0,14,BARCELOS,AMAZONAS,ANA,0.8842,-62.6219,1982-05-28,2018-04-30,37,2.1,32,13.5,0.8699,Excelente,0
JALAUACA,14450000,1,22700.0,14,BARCELOS,AMAZONAS,ANA,-0.3011,-62.7622,1980-08-23,1996-10-31,17,0.0,15,11.8,0.5125,Moderada,0
MISSÃO AUARI,14485000,1,710.0,14,BOA VISTA,RORAIMA,ANA,3.9833,-64.4667,1984-05-06,1996-12-31,13,13.1,8,38.5,0.3839,Limitada,0
MISSÃO AUARIS - JUSANTE,14485010,1,621.0,14,BOA VISTA,RORAIMA,ANA,4.0031,-64.4431,1995-04-13,2018-06-30,24,0.4,21,12.5,0.7176,Moderada,0
UAICÁS,14488000,1,16100.0,14,ALTO ALEGRE,RORAIMA,ANA,3.5497,-63.1692,1984-05-03,2018-04-30,35,0.0,32,8.6,0.8575,Excelente,0
MARACÁ,14489000,1,26700.0,14,ALTO ALEGRE,RORAIMA,ANA,3.3528,-61.4222,2005-11-12,2019-01-31,15,0.0,13,13.3,0.6175,Moderada,0
FAZENDA CAJUPIRANGA,14495000,1,36900.0,14,ALTO ALEGRE,RORAIMA,ANA,3.4381,-61.0367,1979-08-09,2018-05-31,40,0.9,37,7.5,0.9146,Excelente,0
MOCIDADE,14500000,1,43900.0,14,BOA VISTA,RORAIMA,ANA,3.4644,-60.9097,1975-10-01,2018-07-30,44,61.3,10,77.3,0.62,Moderada,0
FAZENDA PASSARÃO,14515000,1,50200.0,14,BOA VISTA,RORAIMA,ANA,3.2078,-60.5711,1977-05-01,2019-04-30,43,1.2,39,9.3,0.9228,Excelente,0
BONFIM,14526000,1,9860.0,14,BONFIM,RORAIMA,ANA,3.3811,-59.8111,1984-07-06,2019-02-28,36,0.5,31,13.9,0.877,Excelente,0
FAZENDA NOVO DESTINO,14526500,1,9870.0,14,NORMÂNDIA,RORAIMA,ANA,3.8547,-59.6875,2006-12-14,2018-06-30,13,0.0,10,23.1,0.5825,Moderada,0
PONTE DO TACUTU,14527000,1,24300.0,14,NORMÂNDIA,RORAIMA,ANA,3.5675,-59.8883,2005-11-18,2018-02-28,14,0.3,9,35.7,0.5932,Moderada,0
VILA SURUMU,14530000,1,2280.0,14,PACARAIMA,RORAIMA,ANA,4.1961,-60.7939,1984-01-24,2019-04-30,36,10.4,25,30.6,0.8176,Excelente,0
FAZENDA BANDEIRA BRANCA,14540000,1,3210.0,14,UIRAMUTA,RORAIMA,ANA,4.6306,-60.4706,1970-10-01,2019-04-30,50,26.4,28,44.0,0.7716,Excelente,0
MALOCA DO CONTÃO,14550000,1,5780.0,14,PACARAIMA,RORAIMA,ANA,4.1675,-60.5289,1975-09-04,2018-07-31,44,1.2,38,13.6,0.9128,Excelente,0
FAZENDA PARAÍSO,14558000,1,40600.0,14,BONFIM,RORAIMA,ANA,3.3178,-60.3447,2012-11-14,2019-03-31,8,5.4,3,62.5,0.4976,Limitada,0
MALOCA AILAN,14560000,1,1090.0,14,BOA VISTA,RORAIMA,ANA,4.63333,-60.1833,1977-04-16,1986-08-31,10,5.8,5,50.0,0.3902,Limitada,0
SÍTIO JARAGUÁ,14570000,1,2940.0,14,BOA VISTA,RORAIMA,ANA,2.8569,-60.7317,2005-10-01,2008-11-30,4,42.5,0,100.0,0.115,Limitada,0
BOA VISTA,14620000,1,97200.0,14,BOA VISTA,RORAIMA,ANA,2.8267,-60.6561,2015-01-01,2018-03-31,4,0.1,2,50.0,0.4694,Limitada,0
POSTO FUNAI,14650000,1,9210.0,14,ALTO ALEGRE,RORAIMA,ANA,2.7317,-62.0172,1984-04-29,2018-04-30,35,30.3,20,42.9,0.6757,Moderada,0
FAZENDA SANTO AMARO,14680000,1,213.0,14,BOA VISTA,RORAIMA,ANA,2.88333,-61.3333,1971-01-01,1973-12-31,3,2.8,2,33.3,0.3207,Limitada,0
FÉ E ESPERANÇA,14680001,1,12200.0,14,MUCAJAÍ,RORAIMA,ANA,2.8708,-61.4406,1973-12-07,2019-04-30,47,1.7,41,12.8,0.9198,Excelente,0
MUCAJAÍ,14690000,1,19800.0,14,MUCAJAÍ,RORAIMA,ANA,2.4714,-60.9178,1995-03-27,2018-05-30,24,0.5,20,16.7,0.717,Moderada,0
CARACARAÍ,14710000,1,126000.0,14,CARACARAÍ,RORAIMA,ANA,1.8214,-61.1236,1967-01-01,2018-05-31,52,1.0,49,5.8,0.914,Excelente,0
FAZENDA ANAUÁ,14740000,1,5900.0,14,CARACARAÍ,RORAIMA,ANA,1.1292,-60.2236,2005-09-23,2018-06-30,14,0.5,12,14.3,0.592,Moderada,0
MISSÃO CATRIMANI,14750000,1,6180.0,14,CARACARAÍ,RORAIMA,ANA,1.75,-62.2833,1984-06-12,2018-06-30,35,19.5,24,31.4,0.7405,Moderada,0
FAZENDA SÃO JOSÉ,14845000,1,5680.0,14,RORAINÓPOLIS,RORAIMA,ANA,0.5178,-60.4661,1983-02-07,2019-04-30,37,13.4,21,43.2,0.8121,Excelente,0
BASE ALALAÚ,14850000,1,7080.0,14,RORAINÓPOLIS,RORAIMA,ANA,-0.8586,-60.52,1977-06-02,2017-10-31,41,17.3,24,41.5,0.8062,Excelente,0
MANAUS 2000,14980000,1,19.7,14,MANAUS,AMAZONAS,ANA,-3.115,-59.9711,2000-11-01,2014-02-25,15,0.0,13,13.3,0.5675,Moderada,0
JATUARANA,15030000,1,2930000.0,15,MANAUS,AMAZONAS,ANA,-3.0633,-59.6478,1977-08-26,2015-01-31,39,0.5,35,10.3,0.8745,Excelente,0
CAREIRO,15040000,1,2850000.0,15,CAREIRO DA VÁRZEA,AMAZONAS,ANA,-3.1961,-59.8336,1977-08-29,2017-11-30,41,3.5,37,9.8,0.889,Excelente,0
RIO PRETO DA EVA,15042000,1,976.0,15,RIO PRETO DA EVA,AMAZONAS,ANA,-2.6989,-59.7036,1994-02-14,2017-10-31,24,3.0,19,20.8,0.692,Moderada,0
PONTES E LACERDA,15050000,1,2990.0,15,PONTES E LACERDA,MATO GROSSO,ANA,-15.2153,-59.3539,1971-06-26,2019-09-30,49,4.2,42,14.3,0.9048,Excelente,0
MATO GROSSO,15120001,1,22500.0,15,VILA BELA DA SANTÍS,MATO GROSSO,ANA,-15.0092,-59.9581,1976-06-30,2019-09-30,44,0.1,41,6.8,0.9294,Excelente,0
CABIXI,15124009,1,3600.0,15,CABIXI,RONDÔNIA,ANA,-13.5125,-60.53,1988-03-23,2019-11-30,32,6.3,24,25.0,0.7922,Excelente,0
PIMENTEIRAS,15130000,1,54400.0,15,PIMENTEIRAS DO OEST,RONDÔNIA,ANA,-13.4858,-61.05,1983-03-22,2019-10-31,37,3.3,30,18.9,0.8727,Excelente,0
CORUMBIARA,15135000,1,265.0,15,CORUMBIARA,RONDÔNIA,ANA,-12.9517,-60.8203,2011-11-24,2014-12-31,4,61.2,0,100.0,0.13,Limitada,0
PEDRAS NEGRAS,15150000,1,110000.0,15,COSTA MARQUES,RONDÔNIA,ANA,-12.8514,-62.8992,1980-12-15,2019-10-31,40,0.0,37,7.5,0.93,Excelente,0
CACHOEIRA DO CACHIMBO,15170000,1,1420.0,15,ALTA FLORESTA D'OES,RONDÔNIA,ANA,-11.9306,-62.1528,1985-06-22,2018-11-30,34,19.9,18,47.1,0.7256,Moderada,0
SÃO MIGUEL DO GUAPORÉ,15180000,1,2060.0,15,SÃO MIGUEL DO GUAPO,RONDÔNIA,ANA,-11.7331,-62.8081,2010-04-15,2019-03-08,10,10.4,4,60.0,0.4926,Limitada,0
SÃO FRANCISCO DO GUAPORÉ,15190000,1,1520.0,15,SÃO FRANCISCO DO GU,RONDÔNIA,ANA,-11.9664,-63.2722,2010-04-18,2019-04-05,10,4.2,6,40.0,0.5298,Moderada,0
PRINCIPE DA BEIRA,15200000,1,341000.0,15,COSTA MARQUES,RONDÔNIA,ANA,-12.4267,-64.4253,1983-04-21,2019-10-31,37,0.0,35,5.4,0.8925,Excelente,0
SERINGAL SÃO LUIZ,15245000,1,1050.0,15,GUAJARÁ-MIRIM,RONDÔNIA,ANA,-11.0667,-64.0833,1973-04-25,1988-04-30,16,0.9,13,18.8,0.4946,Limitada,0
BOA VISTA DO PACAÁS,15246000,1,5480.0,15,GUAJARÁ-MIRIM,RONDÔNIA,ANA,-11.2117,-64.9061,1983-04-04,2005-01-31,23,28.9,12,47.8,0.4141,Limitada,0
BOCA DO POMPEU - JUSANTE,15248010,1,4390.0,15,GUAJARÁ-MIRIM,RONDÔNIA,ANA,-10.9175,-65.0433,1982-07-15,2019-10-31,38,15.3,25,34.2,0.8132,Excelente,0
GUAJARÁ-MIRIM,15250000,1,609000.0,15,GUAJARÁ-MIRIM,RONDÔNIA,ANA,-10.7925,-65.3478,1970-08-08,2019-10-31,50,0.5,47,6.0,0.927,Excelente,0
ABUNÃ,15320002,1,921000.0,15,PORTO VELHO,RONDÔNIA,ANA,-9.7053,-65.3667,1976-02-17,2019-10-31,44,7.1,36,18.2,0.8874,Excelente,0
COLOCAÇÃO CAJUEIRO,15323000,1,8880.0,15,PLÁCIDO DE CASTRO,ACRE,ANA,-10.2947,-67.1333,1982-08-01,1991-01-31,10,9.1,5,50.0,0.3704,Limitada,0
PLÁCIDO DE CASTRO,15324000,1,7740.0,15,PLÁCIDO DE CASTRO,ACRE,ANA,-10.3378,-67.1831,1993-01-01,2019-10-31,27,4.2,23,14.8,0.7423,Moderada,0
MORADA NOVA,15325000,1,30600.0,15,PORTO VELHO,RONDÔNIA,ANA,-9.8333,-65.5667,1981-07-18,1986-05-31,6,0.0,4,33.3,0.375,Limitada,0
MORADA NOVA - JUSANTE,15326000,1,31100.0,15,PORTO VELHO,RONDÔNIA,ANA,-9.7847,-65.5275,1988-02-13,2019-10-31,32,2.1,27,15.6,0.8174,Excelente,0
PALMEIRAL (SALTO JIRAU),15340000,1,958000.0,15,PORTO VELHO,RONDÔNIA,ANA,-9.5119,-64.81,1978-02-08,1986-08-31,9,1.9,7,22.2,0.4011,Limitada,0
PORTO VELHO,15400000,1,976000.0,15,PORTO VELHO,RONDÔNIA,ANA,-8.7483,-63.9169,1967-04-10,2019-10-31,53,0.2,49,7.5,0.9288,Excelente,0
ARIQUEMES,15430000,1,8140.0,15,ARIQUEMES,RONDÔNIA,ANA,-9.9256,-63.0714,1970-07-15,2019-11-30,50,4.5,41,18.0,0.903,Excelente,0
FAZENDA RIO BRANCO,15431000,1,988.0,15,ARIQUEMES,RONDÔNIA,ANA,-9.8869,-62.9847,1979-01-18,2019-04-08,41,1.1,36,12.2,0.9234,Excelente,0
MINERAÇÃO PONTE MASSANGANA,15432000,1,852.0,15,ALTO PARAÍSO,RONDÔNIA,ANA,-9.7608,-63.2875,1980-07-07,2019-04-08,40,1.1,37,7.5,0.9234,Excelente,0
SÃO CARLOS,15440000,1,9750.0,15,ALTO PARAÍSO,RONDÔNIA,ANA,-9.7,-63.1333,1977-06-13,1989-09-30,13,15.6,8,38.5,0.3689,Limitada,0
PONTE DO RIO PRETO DO CRESPO,15445000,1,1110.0,15,RIO CRESPO,RONDÔNIA,ANA,-9.5558,-62.9508,1997-04-02,2015-03-31,19,1.9,16,15.8,0.6161,Moderada,0
SÃO PEDRO,15450000,1,13600.0,15,ITAPUÃ DO OESTE,RONDÔNIA,ANA,-8.9836,-63.2772,1977-06-17,1988-03-18,12,0.0,10,16.7,0.45,Limitada,0
PONTE DA BR-364,15470000,1,209.0,15,CANDÉIAS DO JAMARI,RONDÔNIA,ANA,-8.7747,-63.4875,1992-06-01,2006-12-31,15,10.0,9,40.0,0.4275,Limitada,0
PROSPERIDADE (EX. FOZ DO JAMARI),15490000,1,977000.0,15,PORTO VELHO,RONDÔNIA,ANA,-8.4522,-63.5178,2019-01-01,2019-10-31,1,6.9,0,100.0,0.4011,Limitada,0
BURITIS,15490500,1,1830.0,15,BURITIS,RONDÔNIA,ANA,-10.2806,-63.7308,2010-07-15,2019-10-31,10,19.1,3,70.0,0.4404,Limitada,0
SANTA BÁRBARA,15500000,1,7190.0,15,CANDÉIAS DO JAMARI,RONDÔNIA,ANA,-9.1833,-63.7833,1983-03-14,1984-01-01,2,0.0,0,100.0,0.325,Limitada,0
SANTA ISABEL,15550000,1,12700.0,15,CANDÉIAS DO JAMARI,RONDÔNIA,ANA,-8.7986,-63.7106,1976-03-06,2019-11-30,44,2.2,36,18.2,0.9168,Excelente,0
BARÃO DO MELGAÇO,15552300,1,3860.0,15,PIMENTA BUENO,RONDÔNIA,ANA,-11.85,-60.7167,1981-01-26,1982-08-31,2,13.2,0,100.0,0.2458,Limitada,0
FAZENDA FLOR DO CAMPO,15552600,1,4360.0,15,PIMENTA BUENO,RONDÔNIA,ANA,-11.7489,-60.8678,1982-12-13,2019-11-30,38,2.3,34,10.5,0.8912,Excelente,0
PONTE COMEMORAÇÃO (PIMENTA BUENO),15552700,1,5790.0,15,PIMENTA BUENO,RONDÔNIA,ANA,-11.6703,-61.1811,1985-01-01,2006-12-31,22,15.0,14,36.4,0.485,Limitada,0
FAZENDA EXPANSÃO,15553500,1,3610.0,15,CHUPINGUAIA,RONDÔNIA,ANA,-12.4878,-61.0464,1983-04-01,1998-04-30,16,10.0,11,31.2,0.44,Limitada,0
CACHOEIRA PRIMAVERA - MONTANTE,15556000,1,9600.0,15,PIMENTA BUENO,RONDÔNIA,ANA,-11.9011,-61.2394,1982-08-01,1985-10-31,4,9.3,1,75.0,0.2942,Limitada,0
PCH PRIMAVERA JUSANTE,15556010,1,9600.0,15,PIMENTA BUENO,RONDÔNIA,ANA,-11.9011,-61.2394,1988-03-31,2006-10-31,19,5.8,15,21.1,0.5027,Moderada,0
PIMENTA BUENO,15558000,1,10100.0,15,PIMENTA BUENO,RONDÔNIA,ANA,-11.6836,-61.1922,1980-05-29,2019-10-31,40,4.1,35,12.5,0.9054,Excelente,0
CACOAL,15558200,1,17900.0,15,CACOAL,RONDÔNIA,ANA,-11.4444,-61.4408,2015-08-13,2019-10-31,5,18.8,0,100.0,0.3797,Limitada,0
FAZENDA APURÚ,15558500,1,3600.0,15,JI-PARANÁ,RONDÔNIA,ANA,-11.0017,-62.1172,2006-07-01,2019-10-31,14,4.6,10,28.6,0.5774,Moderada,0
ESPIGÃO DO OESTE,15558700,1,277.0,15,ESPIGÃO D'OESTE,RONDÔNIA,ANA,-11.5725,-61.0511,2011-05-01,2019-03-21,9,10.5,3,66.7,0.4795,Limitada,0
SÍTIO BELA VISTA,15559000,1,16100.0,15,PIMENTA BUENO,RONDÔNIA,ANA,-11.6525,-61.215,1984-12-01,2019-11-30,36,6.1,29,19.4,0.8434,Excelente,0
JI-PARANÁ,15560000,1,32800.0,15,JI-PARANÁ,RONDÔNIA,ANA,-10.8736,-61.9356,1977-12-13,2019-10-31,43,3.8,39,9.3,0.9072,Excelente,0
OURO PRETO DO OESTE,15562000,1,242.0,15,OURO PRETO DO OESTE,RONDÔNIA,ANA,-10.7711,-62.2572,2011-02-01,2019-03-30,9,0.3,3,66.7,0.5407,Moderada,0
JARUARU,15564000,1,133.0,15,JARU,RONDÔNIA,ANA,-10.8317,-62.8925,2012-01-01,2019-10-31,8,6.9,4,50.0,0.4886,Limitada,0
JARU,15565000,1,3960.0,15,JARU,RONDÔNIA,ANA,-10.4458,-62.4656,1981-05-19,2019-10-31,39,6.9,28,28.2,0.8761,Excelente,0
SÃO MATEUS,15571000,1,46900.0,15,VALE DO ANARI,RONDÔNIA,ANA,-9.8667,-61.9333,1985-01-01,1988-12-19,4,23.2,2,50.0,0.2108,Limitada,0
FÁBIO BARRAGEM (EX -JP-14 ),15571100,1,48500.0,15,VALE DO ANARI,RONDÔNIA,ANA,-9.7431,-61.8817,1985-08-29,1987-12-31,3,0.0,2,33.3,0.3375,Limitada,0
BUENOS AIRES,15571500,1,51800.0,15,MACHADINHO D'OESTE,RONDÔNIA,ANA,-9.25,-61.6667,1984-12-01,1989-03-31,6,8.4,3,50.0,0.3246,Limitada,0
UNIÃO,15572000,1,2130.0,15,ARIQUEMES,RONDÔNIA,ANA,-9.7333,-62.2333,1983-08-01,1988-10-31,6,0.0,4,33.3,0.375,Limitada,0
PIRATININGA,15575000,1,4650.0,15,MACHADINHO D'OESTE,RONDÔNIA,ANA,-9.3472,-61.9347,1984-03-03,2008-04-30,25,8.6,20,20.0,0.5809,Moderada,0
TABAJARA,15580000,1,60200.0,15,MACHADINHO D'OESTE,RONDÔNIA,ANA,-8.9322,-62.0556,1977-12-12,2019-10-31,43,5.0,37,14.0,0.9,Excelente,0
MINERAÇÃO JACUNDÁ,15590000,1,1200.0,15,ITAPUÃ DO OESTE,RONDÔNIA,ANA,-9.1789,-62.9522,1983-03-02,2007-03-30,25,0.8,21,16.0,0.6177,Moderada,0
HUMAITÁ,15630000,1,1090000.0,15,HUMAITÁ,AMAZONAS,ANA,-7.5028,-63.0183,1967-04-18,2017-10-31,51,0.9,46,9.8,0.9046,Excelente,0
MALOCA TENHARIM,15650000,1,3630.0,15,MANICORÉ,AMAZONAS,ANA,-7.9578,-62.0425,1977-12-04,2016-06-30,40,16.5,20,50.0,0.801,Excelente,0
MAICI-MIRIM,15660000,1,735.0,15,HUMAITÁ,AMAZONAS,ANA,-7.6303,-62.6553,1997-01-16,2016-06-30,20,1.1,16,20.0,0.6434,Moderada,0
FAZENDA BELA VISTA,15680000,1,1530.0,15,MANICORÉ,AMAZONAS,ANA,-7.8533,-61.3339,2003-11-03,2016-06-29,14,3.4,9,35.7,0.5546,Moderada,0
MANICORÉ,15700000,1,1150000.0,15,MANICORÉ,AMAZONAS,ANA,-5.8167,-61.3019,1967-04-24,2016-12-31,50,0.8,46,8.0,0.8952,Excelente,0
HUMBOLDT,15750000,1,15200.0,15,ARIPUANÃ,MATO GROSSO,ANA,-10.1694,-59.4661,1979-05-24,2019-08-31,41,4.7,36,12.2,0.9018,Excelente,0
BOM DESTINO,15790000,1,40100.0,15,APUÍ,AMAZONAS,ANA,-8.3747,-59.7717,1982-07-03,1989-09-30,8,7.3,5,37.5,0.3562,Limitada,0
LEONTINO,15795000,1,16200.0,15,NOVO ARIPUANÃ,AMAZONAS,ANA,-7.7394,-60.5761,1984-11-09,2016-06-18,33,14.9,25,24.2,0.7231,Moderada,0
BOCA DO GUARIBA,15800000,1,70100.0,15,APUÍ,AMAZONAS,ANA,-7.7058,-60.5783,1977-12-11,2016-06-19,40,0.0,38,5.0,0.9,Excelente,0
CONCISA,15820000,1,24300.0,15,ARIPUANÃ,MATO GROSSO,ANA,-9.8169,-60.6919,1976-08-17,2000-11-30,25,29.2,9,64.0,0.4373,Limitada,0
MINERAÇÃO SÃO FRANCISCO,15825000,1,6100.0,15,COLNIZA,MATO GROSSO,ANA,-9.2481,-61.3883,1984-07-01,1989-01-31,6,52.0,1,83.3,0.075,Limitada,0
FAZENDA BOA LEMBRANÇA,15828000,1,59500.0,15,MANICORÉ,AMAZONAS,ANA,-7.5928,-60.7094,1984-11-07,2011-08-31,28,1.3,25,10.7,0.6922,Moderada,0
PRAINHA VELHA,15830000,1,131000.0,15,NOVO ARIPUANÃ,AMAZONAS,ANA,-7.2078,-60.65,1974-06-02,2016-06-26,43,0.0,41,4.7,0.9,Excelente,0
BOA FÉ,15903000,1,3620.0,15,APUÍ,AMAZONAS,ANA,-7.2275,-58.9386,1985-07-02,2001-09-30,17,85.3,0,100.0,0.2125,Limitada,0
BOCA DO URUÇU,15905000,1,5950.0,15,APUÍ,AMAZONAS,ANA,-7.15,-58.9333,1982-09-01,2001-06-30,20,60.9,6,70.0,0.25,Limitada,0
SANTARÉM SUCUNDURI,15910000,1,12700.0,15,APUÍ,AMAZONAS,ANA,-6.7956,-59.0422,1975-05-01,2016-06-22,42,0.5,38,9.5,0.897,Excelente,0
ACARI BR-230,15930000,1,4990.0,15,APUÍ,AMAZONAS,ANA,-7.1014,-59.6833,1984-11-12,2016-06-22,33,9.3,27,18.2,0.7567,Excelente,0
RIO URUBU,16010000,1,5090.0,16,RIO PRETO DA EVA,AMAZONAS,ANA,-2.6625,-59.3589,2004-06-05,2014-12-31,11,4.4,8,27.3,0.4911,Limitada,0
ITACOATIARA,16030000,1,4350000.0,16,ITACOATIARA,AMAZONAS,ANA,-3.1539,-58.4114,2008-03-01,2018-05-31,11,0.2,7,36.4,0.5563,Moderada,0
BALBINA P-8 (UHE BALBINA),16080000,1,18900.0,16,PRESIDENTE FIGUEIRE,AMAZONAS,ANA,-1.9381,-59.4833,1977-03-22,2014-12-31,38,12.9,28,26.3,0.7776,Excelente,0
CACHOEIRA MORENA,16100000,1,20400.0,16,PRESIDENTE FIGUEIRE,AMAZONAS,ANA,-2.1061,-59.3442,1973-03-16,2017-10-31,45,16.3,28,37.8,0.8122,Excelente,0
KATUEMA,16150000,1,21400.0,16,URUCARÁ,AMAZONAS,ANA,-1.0333,-58.6833,1978-04-05,1985-07-31,8,5.7,5,37.5,0.3658,Limitada,0
BASE SIDERAMA - JUSANTE,16205000,1,24600.0,16,URUCARÁ,AMAZONAS,ANA,-1.6833,-58.5333,2001-08-01,2019-04-30,19,4.7,15,21.1,0.6393,Moderada,0
FAZENDA PARAMAZONAS,16360000,1,8180.0,16,MAUÉS,AMAZONAS,ANA,-4.63333,-57.8167,1980-05-31,1983-09-30,4,3.6,1,75.0,0.3284,Limitada,0
MAMURU,16365000,1,4950.0,16,AVEIRO,PARÁ,ANA,-3.41667,-56.3667,1981-06-25,1983-09-26,3,0.0,1,66.7,0.3375,Limitada,0
MINERAÇÃO CAIMA,16368000,1,9580.0,16,NHAMUNDÁ,AMAZONAS,ANA,-1.4381,-57.8269,1981-07-04,2019-05-31,39,44.3,18,53.8,0.6517,Moderada,0
PERIMETRAL NORTE,16370000,1,20300.0,16,ORIXIMINÁ,PARÁ,ANA,0.6425,-56.8706,1987-01-14,2011-03-31,25,76.0,3,88.0,0.3625,Limitada,0
GARGANTA,16430000,1,39000.0,16,ORIXIMINÁ,PARÁ,ANA,-0.9978,-57.0431,1986-01-01,2015-09-12,30,15.7,23,23.3,0.6708,Moderada,0
ALDEIA DO CHAPÉU,16440000,1,12500.0,16,ORIXIMINÁ,PARÁ,ANA,-0.9497,-57.1639,2010-12-01,2019-11-28,10,25.6,4,60.0,0.4014,Limitada,0
CARAMUJO,16460000,1,51700.0,16,ORIXIMINÁ,PARÁ,ANA,-1.065,-57.0614,1986-01-01,2019-08-31,34,19.6,24,29.4,0.7374,Moderada,0
ALDEIA WAI-WAI,16480000,1,21600.0,16,ORIXIMINÁ,PARÁ,ANA,-0.6947,-57.9747,1986-01-01,2013-02-28,28,16.3,21,25.0,0.6222,Moderada,0
ESTIRÃO DA ANGÉLICA,16500000,1,25800.0,16,ORIXIMINÁ,PARÁ,ANA,-1.1006,-57.0569,1970-11-21,2019-11-30,50,41.3,23,54.0,0.6822,Moderada,0
TIRIOS,16700000,1,819.0,16,ÓBIDOS,PARÁ,ANA,2.2239,-55.9564,1979-02-21,2013-01-31,35,7.6,28,20.0,0.7619,Excelente,0
VISTA ALEGRE - CONJ.2,16800002,1,34800.0,16,ORIXIMINÁ,PARÁ,ANA,-1.1308,-56.0542,1988-01-01,1988-12-31,1,0.0,1,0.0,0.3125,Limitada,0
ORIXIMINÁ,16900000,1,127000.0,16,ORIXIMINÁ,PARÁ,ANA,-1.7764,-55.8622,1987-01-01,1987-12-31,1,0.0,1,0.0,0.3125,Limitada,0
ÓBIDOS - PORTO,17050000,1,4670000.0,17,ÓBIDOS,PARÁ,ANA,-1.9472,-55.5111,1927-12-11,1998-04-30,72,30.0,46,36.1,0.62,Moderada,0
ÓBIDOS,17050001,1,4670000.0,17,ÓBIDOS,PARÁ,ANA,-1.9192,-55.5131,1968-01-01,2019-11-30,52,2.0,49,5.8,0.918,Excelente,0
SETE VARAS,17070000,1,6730.0,17,SANTARÉM,PARÁ,ANA,-0.95,-54.9167,1980-06-22,1982-09-30,3,2.5,1,66.7,0.3225,Limitada,0
BOCA DO INFERNO,17090000,1,19800.0,17,ALENQUER,PARÁ,ANA,-1.5031,-54.8728,1973-03-26,2019-10-31,47,0.0,45,4.3,0.93,Excelente,0
FAZENDA TUCUNARÉ,17091000,1,4360.0,17,SAPEZAL,MATO GROSSO,ANA,-13.4608,-59.0078,1993-01-01,2019-08-31,27,0.0,26,3.7,0.7675,Excelente,0
ALDEIA SACRE II,17092800,1,6770.0,17,CAMPO NOVO DO PAREC,MATO GROSSO,ANA,-13.0264,-58.1853,2004-10-19,2019-07-31,16,0.0,13,18.8,0.63,Moderada,0
UTIARITI,17092900,1,4370.0,17,SAPEZAL,MATO GROSSO,ANA,-13.0333,-58.2833,1983-04-02,1986-12-31,4,24.4,1,75.0,0.2036,Limitada,0
FAZENDA SATÉLITE,17092950,1,6671.0,17,JUÍNA,MATO GROSSO,ANA,-13.0814,-58.1783,1995-02-15,2003-07-31,9,19.9,3,66.7,0.2931,Limitada,0
FONTANILHAS,17093000,1,55900.0,17,JUÍNA,MATO GROSSO,ANA,-11.3583,-58.3428,1978-01-26,2019-08-31,42,2.9,36,14.3,0.9126,Excelente,0
FAZENDA TOMBADOR,17095000,1,24700.0,17,BRASNORTE,MATO GROSSO,ANA,-11.7181,-58.0481,1984-09-01,2019-07-31,36,6.2,25,30.6,0.8428,Excelente,0
GLEBA AGROSAN,17097000,1,27032.0,17,BRASNORTE,MATO GROSSO,ANA,-11.3214,-58.1289,1976-08-24,1978-09-30,3,73.0,0,100.0,0.0375,Limitada,0
FAZENDA VALE DO TUCANA,17098000,1,93814.0,17,JURUENA,MATO GROSSO,ANA,-10.4386,-58.3472,1975-11-01,1981-06-26,7,59.9,2,71.4,0.0875,Limitada,0
FAZENDA TAUA,17100000,1,14800.0,17,SÃO JOSÉ DO RIO CLA,MATO GROSSO,ANA,-13.3844,-56.6103,1973-09-17,1977-10-21,5,0.0,3,40.0,0.3625,Limitada,0
PORTO DOS GAÚCHOS,17120000,1,37100.0,17,PORTO DOS GAÚCHOS,MATO GROSSO,ANA,-11.5367,-57.4236,1973-09-13,2019-07-31,47,1.3,40,14.9,0.9222,Excelente,0
RIO DOS PEIXES,17122000,1,14400.0,17,JUARA,MATO GROSSO,ANA,-10.8231,-57.7272,2000-03-29,2019-07-31,20,0.0,17,15.0,0.68,Moderada,0
RIO ARINOS,17123000,1,57100.0,17,JUARA,MATO GROSSO,ANA,-10.6392,-58.0042,2000-09-26,2019-07-31,20,7.4,14,30.0,0.6356,Moderada,0
FOZ DO JURUENA,17130000,1,182000.0,17,APIACÁS,MATO GROSSO,ANA,-7.7311,-58.2808,1986-11-22,2019-07-31,34,52.0,14,58.8,0.555,Moderada,0
PORTO RONCADOR,17200000,1,10800.0,17,SORRISO,MATO GROSSO,ANA,-13.5575,-55.3347,1973-08-12,2019-07-31,47,2.3,37,21.3,0.9162,Excelente,0
TELES PIRES,17210000,1,13900.0,17,SORRISO,MATO GROSSO,ANA,-12.6742,-55.7928,1976-04-19,2019-07-31,44,10.0,34,22.7,0.87,Excelente,0
CACHOEIRÃO,17280000,1,34600.0,17,SINOP,MATO GROSSO,ANA,-11.6517,-55.7025,1975-11-15,2019-03-31,45,6.8,35,22.2,0.8892,Excelente,0
FAZENDA TRATEX,17300000,1,40700.0,17,COLÍDER,MATO GROSSO,ANA,-10.9558,-55.5508,1994-04-02,2015-09-30,22,0.0,20,9.1,0.665,Moderada,0
INDECO,17340000,1,52200.0,17,CARLINDA,MATO GROSSO,ANA,-10.1133,-55.5706,1975-10-28,2019-09-30,45,4.6,36,20.0,0.9024,Excelente,0
ESTRADA CUIABÁ - SANTARÉM,17343000,1,10738.0,17,PEIXOTO DE AZEVEDO,MATO GROSSO,ANA,-10.2194,-54.9708,2003-09-19,2019-09-30,17,2.5,11,35.3,0.6275,Moderada,0
BASE DO CACHIMBO,17345000,1,465.0,17,NOVO PROGRESSO,PARÁ,ANA,-9.3589,-54.9039,1980-06-21,2019-09-30,40,3.8,34,15.0,0.9072,Excelente,0
CACHIMBO,17350000,1,1010.0,17,GUARANTÃ DO NORTE,MATO GROSSO,ANA,-9.8172,-54.8858,1979-03-17,2019-09-30,41,0.5,38,7.3,0.927,Excelente,0
ESTRADA CUIABÁ - SANTARÉM,17360000,1,17278.0,17,PEIXOTO DE AZEVEDO,MATO GROSSO,ANA,-10.1833,-55.3667,1976-04-23,1990-06-20,15,68.5,0,100.0,0.1875,Limitada,0
JUSANTE FOZ PEIXOTO DE AZEVEDO,17380000,1,81600.0,17,ALTA FLORESTA,MATO GROSSO,ANA,-9.6406,-56.0194,1980-09-18,2019-09-30,40,11.9,31,22.5,0.8586,Excelente,0
SANTA ROSA,17410000,1,131000.0,17,ALTA FLORESTA,MATO GROSSO,ANA,-8.8578,-57.4019,1982-08-23,2009-12-31,28,17.8,17,39.3,0.5732,Moderada,0
TRÊS MARIAS,17420000,1,138000.0,17,ARIPUANÃ,MATO GROSSO,ANA,-7.6147,-57.9503,1975-11-25,2019-08-24,45,13.8,35,22.2,0.8472,Excelente,0
BARRA DO SÃO MANUEL,17430000,1,333000.0,17,BORBA,AMAZONAS,ANA,-7.3397,-58.1553,1975-11-01,2019-08-30,45,13.3,35,22.2,0.8502,Excelente,0
MISSÃO CURURU,17450000,1,7345.0,17,JACAREACANGA,PARÁ,ANA,-7.3875,-57.9353,1979-03-16,1988-05-31,10,2.0,7,30.0,0.413,Limitada,0
FORTALEZA,17500000,1,363000.0,17,ITAITUBA,PARÁ,ANA,-6.0453,-57.6428,1982-07-23,2014-12-31,33,4.3,27,18.2,0.7667,Excelente,0
CREPORIZÃO (EX - MUNDICO COELHO),17610000,1,6240.0,17,JACAREACANGA,PARÁ,ANA,-6.8197,-56.8517,1987-08-01,2009-03-31,23,54.2,3,87.0,0.3175,Limitada,0
ACARÁ DO TAPAJÓS,17650002,1,390000.0,17,ITAITUBA,PARÁ,ANA,-4.8864,-56.7231,1996-01-01,2011-01-31,16,1.6,13,18.8,0.5404,Moderada,0
TRAVESSÃO DO PATAUA,17670000,1,10285.0,17,NOVO PROGRESSO,PARÁ,ANA,-7.02778,-56.2267,1981-08-01,1982-12-31,2,1.5,0,100.0,0.316,Limitada,0
GARIMPO SURUBIM,17672000,1,11341.0,17,ITAITUBA,PARÁ,ANA,-6.73333,-56.15,1987-09-01,1988-12-31,2,0.0,1,50.0,0.325,Limitada,0
JARDIM DO OURO,17675000,1,37400.0,17,ITAITUBA,PARÁ,ANA,-6.2575,-55.7725,1987-08-15,2019-07-31,33,40.3,9,72.7,0.6007,Moderada,0
JAMANXIM,17680000,1,40200.0,17,ITAITUBA,PARÁ,ANA,-5.4556,-55.87,1986-02-18,2019-08-27,34,62.7,6,82.4,0.555,Moderada,0
BUBURÉ,17710000,1,450000.0,17,ITAITUBA,PARÁ,ANA,-4.6156,-56.325,2004-10-21,2019-08-31,16,14.3,8,50.0,0.5442,Moderada,0
JUSANTE DA BARRAGEM - CONJ 1,18121002,1,16200.0,18,SANTARÉM,PARÁ,ANA,-2.78333,-54.2667,1970-09-22,1973-12-31,4,0.0,3,25.0,0.35,Limitada,0
BARRAGEM - CONJ.4,18121006,1,16200.0,18,SANTARÉM,PARÁ,ANA,-2.81556,-54.3017,1974-02-20,2003-07-31,30,4.1,20,33.3,0.6504,Moderada,0
LAJEIRO,18150000,1,7030.0,18,MONTE ALEGRE,PARÁ,ANA,-0.966667,-54.4333,1980-06-20,1983-04-30,4,0.0,2,50.0,0.35,Limitada,0
ARAPARI,18200000,1,12400.0,18,MONTE ALEGRE,PARÁ,ANA,-1.7789,-54.3972,1972-05-29,2019-10-31,48,0.0,46,4.2,0.93,Excelente,0
URUARÁ,18250000,1,2960.0,18,URUARA,PARÁ,ANA,-3.6772,-53.5542,1977-12-02,2019-08-27,43,10.1,34,20.9,0.8694,Excelente,0
APALAI,18280000,1,7230.0,18,ALMEIRIM,PARÁ,ANA,1.2208,-54.6569,1980-07-24,2012-09-30,33,0.0,31,6.1,0.7725,Excelente,0
PORTO PUXURI,18295000,1,23900.0,18,ALMEIRIM,PARÁ,ANA,-0.2139,-53.8469,2010-10-03,2019-10-31,10,0.0,8,20.0,0.555,Moderada,0
FAZENDA PAQUIRA,18300000,1,29500.0,18,ALMEIRIM,PARÁ,ANA,-0.4167,-53.6875,1973-01-01,1989-04-30,17,0.0,16,5.9,0.5125,Moderada,0
PASSAGEM DA BR-309,18408900,1,661.0,18,PARANATINGA,MATO GROSSO,ANA,-14.6131,-54.0156,1980-05-01,1993-09-30,14,18.1,8,42.9,0.3664,Limitada,0
PASSAGEM DA BR-309,18409000,1,706.0,18,PARANATINGA,MATO GROSSO,ANA,-14.6111,-53.9986,1994-01-01,2014-12-31,21,3.0,18,14.3,0.6245,Moderada,0
POUSADA MATRINXA,18415000,1,11600.0,18,CANARANA,MATO GROSSO,ANA,-13.5692,-53.0761,2000-08-11,2019-08-31,20,12.8,12,40.0,0.6032,Moderada,0
FAZENDA ITAGUAÇU,18420000,1,3840.0,18,PARANATINGA,MATO GROSSO,ANA,-13.1408,-54.4453,1977-04-19,2019-09-30,43,14.8,30,30.2,0.8412,Excelente,0
FOZ RONURO,18421000,1,10300.0,18,FELIZ NATAL,MATO GROSSO,ANA,-12.3692,-54.1383,2010-05-27,2014-03-31,5,2.2,3,40.0,0.4293,Limitada,0
RIACHO DE DEUS,18422000,1,11600.0,18,MARCELÂNDIA,MATO GROSSO,ANA,-11.1272,-54.4767,2004-10-29,2019-08-31,16,16.8,8,50.0,0.5292,Moderada,0
CONSUL,18423000,1,8900.0,18,FELIZ NATAL,MATO GROSSO,ANA,-12.3658,-54.4892,1997-09-23,2013-04-22,17,0.0,15,11.8,0.5825,Moderada,0
DARRO I (Ponte Km 40),18423500,1,1750.0,18,QUERÊNCIA,MATO GROSSO,ANA,-12.3536,-52.3572,2008-05-10,2013-09-30,6,20.1,3,50.0,0.3244,Limitada,0
DARRO II (Barra do rio Darro),18423800,1,4330.0,18,QUERÊNCIA,MATO GROSSO,ANA,-11.8178,-52.4011,2008-05-16,2013-09-18,6,1.5,4,33.3,0.436,Limitada,0
TANGURINHO  (Sítio Tangurinho),18426000,1,52.0,18,CANARANA,MATO GROSSO,ANA,-13.4258,-52.1531,2008-05-05,2013-11-24,6,2.6,4,33.3,0.4294,Limitada,0
TURVO (Sítio novo turvo),18426500,1,467.0,18,CANARANA,MATO GROSSO,ANA,-13.2247,-51.9306,2008-05-07,2013-09-30,6,1.5,4,33.3,0.436,Limitada,0
BONITO  (Ribeirão Bonito),18426800,1,182.0,18,RIBEIRÃO CASCALHEIR,MATO GROSSO,ANA,-12.9528,-51.8517,2008-05-08,2013-09-30,6,7.8,3,50.0,0.3982,Limitada,0
SANTA CRUZ DO SUIA,18428000,1,3510.0,18,QUERÊNCIA,MATO GROSSO,ANA,-12.6219,-52.0589,2004-10-16,2019-08-31,16,23.7,8,50.0,0.4878,Limitada,0
SUIÁ-MIÇU  (Brasil Novo),18428100,1,8690.0,18,QUERÊNCIA,MATO GROSSO,ANA,-11.8386,-52.2519,2010-02-05,2010-04-18,1,0.0,0,100.0,0.3525,Limitada,0
PASSAGEM BR-080,18430000,1,139000.0,18,MARCELÂNDIA,MATO GROSSO,ANA,-10.7772,-53.0956,1975-10-25,1978-08-15,4,5.8,1,75.0,0.3152,Limitada,0
RIO COMANDANTE FONTOURA,18435000,1,5430.0,18,SÃO JOSÉ DO XINGU,MATO GROSSO,ANA,-10.5547,-52.1833,1999-10-29,2019-08-31,21,10.9,14,33.3,0.6271,Moderada,0
JUSANTE RIO PRETO,18436000,1,12000.0,18,VILA RICA,MATO GROSSO,ANA,-10.0472,-52.1144,2000-07-26,2013-01-31,14,0.0,12,14.3,0.545,Moderada,0
BOA SORTE,18460000,1,210000.0,18,SÃO FÉLIX DO XINGU,PARÁ,ANA,-6.7358,-51.9953,1977-01-23,2019-06-30,43,6.9,34,20.9,0.8886,Excelente,0
UHE SÃO FÉLIX,18470000,1,210000.0,18,SÃO FÉLIX DO XINGU,PARÁ,ANA,-6.7978,-52.0006,1976-01-01,2005-12-31,30,0.0,30,0.0,0.675,Moderada,0
FAZENDA RIO DOURADO,18480000,1,6860.0,18,CUMARU DO NORTE,PARÁ,ANA,-8.3269,-51.4603,2005-05-01,2019-08-25,15,17.6,8,46.7,0.5119,Moderada,0
BOA ESPERANÇA,18500000,1,42400.0,18,SÃO FÉLIX DO XINGU,PARÁ,ANA,-6.7453,-51.7736,1975-11-06,2019-07-28,45,12.3,30,33.3,0.8562,Excelente,0
SÃO FÉLIX DO XINGÚ,18510000,1,255000.0,18,SÃO FÉLIX DO XINGU,PARÁ,ANA,-6.6042,-52.0578,1975-06-16,1998-02-28,24,7.3,12,50.0,0.5562,Moderada,0
UHE POMBAL,18514000,1,266000.0,18,SÃO FÉLIX DO XINGU,PARÁ,ANA,-5.91778,-52.5908,1976-01-01,2005-12-31,30,0.0,30,0.0,0.675,Moderada,0
BELO HORIZONTE,18520000,1,281000.0,18,ALTAMIRA,PARÁ,ANA,-5.3928,-52.8772,1976-05-01,1998-02-27,23,6.1,16,30.4,0.5509,Moderada,0
MANOEL JORGE  (TERRA PRETA),18590000,1,56900.0,18,ALTAMIRA,PARÁ,ANA,-6.1872,-54.0836,1999-09-23,2019-07-31,21,31.6,10,52.4,0.5029,Moderada,0
LARANJEIRAS,18600000,1,58700.0,18,ALTAMIRA,PARÁ,ANA,-5.6967,-54.2456,1975-11-23,2019-07-21,45,44.9,20,55.6,0.6606,Moderada,0
CACHOEIRA DA LUZ,18620000,1,1100.0,18,ALTAMIRA,PARÁ,ANA,-8.76667,-54.95,1981-09-23,1986-04-10,6,18.3,2,66.7,0.2652,Limitada,0
ALDEIA BAÚ,18640000,1,18300.0,18,ALTAMIRA,PARÁ,ANA,-7.34611,-54.8236,1981-09-03,1994-11-30,14,20.8,8,42.9,0.3502,Limitada,0
CAJUEIRO,18650000,1,35600.0,18,ALTAMIRA,PARÁ,ANA,-5.65,-54.5208,1975-11-19,2019-07-31,45,12.1,30,33.3,0.8574,Excelente,0
PEDRA DO Ó,18700000,1,122000.0,18,ALTAMIRA,PARÁ,ANA,-4.5278,-54.0125,1976-09-01,2012-07-31,37,14.4,28,24.3,0.7361,Moderada,0
UHE ALTAMIRA,18849100,1,447000.0,18,ALTAMIRA,PARÁ,ANA,-3.29861,-52.2019,1976-01-01,2005-12-31,30,0.0,30,0.0,0.675,Moderada,0
ALTAMIRA,18850000,1,448000.0,18,ALTAMIRA,PARÁ,ANA,-3.2147,-52.2122,1968-06-05,2019-08-31,52,1.7,45,13.5,0.9198,Excelente,0
ALDEIA BACAJÁ,18870000,1,12800.0,18,SENADOR JOSÉ PORFIR,PARÁ,ANA,-4.91611,-51.4283,1976-07-24,1999-06-30,24,32.3,8,66.7,0.4062,Limitada,0
FAZENDA CIPAUBA,18880000,1,24700.0,18,ANAPU,PARÁ,ANA,-3.7314,-51.5675,1977-11-01,2019-08-31,43,46.2,18,58.1,0.6528,Moderada,0
UHE BELO MONTE,18901080,1,482000.0,18,SENADOR JOSÉ PORFIR,PARÁ,ANA,-3.1019,-51.7786,1976-01-01,2005-12-31,30,0.0,30,0.0,0.675,Moderada,0
FAZENDA BOA ESPERANÇA,18940000,1,12800.0,18,PORTO DE MOZ,PARÁ,ANA,-2.2111,-52.8,1981-09-28,1985-01-23,5,2.6,2,60.0,0.3469,Limitada,0
PORTO DO FRANÇA,18960000,1,692.0,18,PORTO DE MOZ,PARÁ,ANA,-1.78333,-52.0833,1979-01-28,1987-02-20,9,4.5,4,55.6,0.3855,Limitada,0
IRATAPURU,19100000,1,4470.0,19,LARANJAL DO JARÍ,AMAPÁ,ANA,-0.5544,-52.5797,1980-08-27,2016-02-27,37,0.7,34,8.1,0.8583,Excelente,0
SÃO FRANCISCO,19150000,1,51500.0,19,LARANJAL DO JARÍ,AMAPÁ,ANA,-0.5692,-52.5692,1968-07-06,2014-12-31,47,1.1,45,4.3,0.8734,Excelente,0
SÃO PEDRO,19200000,1,735.0,19,LARANJAL DO JARÍ,AMAPÁ,ANA,-0.4567,-52.0781,1997-05-20,2019-02-12,23,0.0,20,13.0,0.7175,Moderada,0
PANCADA,19300000,1,2290.0,19,MAZAGÃO,AMAPÁ,ANA,-0.1797,-51.7567,1982-09-24,1991-10-31,10,0.0,8,20.0,0.425,Limitada,0
ACAMPAMENTO BACURI,19400000,1,1000.0,19,MACAPÁ,AMAPÁ,ANA,0.4067,-51.7433,1989-06-22,1996-07-31,8,5.9,5,37.5,0.3646,Limitada,0
FAZENDA SANTO ANTÔNIO,19950000,1,2920.0,19,ANAPU,PARÁ,ANA,-3.48861,-51.2072,1981-05-23,1983-01-01,3,35.7,0,100.0,0.1233,Limitada,0
PACAJÁS,19985000,1,2682.0,19,PACAJÁ,PARÁ,ANA,-3.8511,-50.6397,1981-03-26,2019-11-30,39,5.1,32,17.9,0.8869,Excelente,0
MONTANTE PONTE DF-128,20017000,1,223.0,20,BRASÍLIA,DISTRITO FEDERAL,ANA,-15.5064,-47.6114,2005-01-01,2019-10-31,15,12.9,12,20.0,0.5401,Moderada,0
PONTE QUEBRA LINHA,20050000,1,11200.0,20,VILA PROPÍCIO,GOIÁS,ANA,-14.9775,-48.6739,1966-01-01,2013-04-22,48,0.0,47,2.1,0.87,Excelente,0
JARAGUÁ,20100000,1,1970.0,20,JARAGUÁ,GOIÁS,ANA,-15.7242,-49.3219,1964-11-25,2019-10-31,56,3.2,49,12.5,0.9108,Excelente,0
FAZENDA NOVO URU,20150000,1,334.0,20,ITABERAÍ,GOIÁS,ANA,-15.9994,-49.9917,1965-02-03,1972-02-21,8,18.6,2,75.0,0.2884,Limitada,0
URUANA,20200000,1,3700.0,20,URUANA,GOIÁS,ANA,-15.4961,-49.6908,1964-12-14,2019-10-31,56,0.0,54,3.6,0.93,Excelente,0
COLÔNIA DOS AMERICANOS,20490000,1,18400.0,20,URUAÇU,GOIÁS,ANA,-14.7397,-49.0639,1973-09-18,1998-02-20,26,8.0,21,19.2,0.577,Moderada,0
PORTO URUAÇU,20500000,1,34600.0,20,URUAÇU,GOIÁS,ANA,-14.5186,-49.0417,1964-12-01,1996-09-30,33,3.1,30,9.1,0.6939,Moderada,0
PORTO RIO BAGAGEM,20700000,1,2910.0,20,NIQUELÂNDIA,GOIÁS,ANA,-14.3692,-48.2033,1970-03-01,1997-02-28,28,0.0,26,7.1,0.65,Moderada,0
TOCANTINZINHO,20900000,1,4680.0,20,COLINAS DO SUL,GOIÁS,ANA,-14.1836,-48.0903,1971-11-25,1998-02-09,28,0.0,26,7.1,0.65,Moderada,0
PONTE RIO PRETO,20950000,1,878.0,20,COLINAS DO SUL,GOIÁS,ANA,-13.9881,-47.9289,1979-04-17,2006-09-30,28,4.3,22,21.4,0.6242,Moderada,0
SÃO FÉLIX (A/B),21050000,1,57400.0,21,SÃO FÉLIX DO TOCANT,TOCANTINS,ANA,-13.5331,-48.1381,1970-05-29,1996-09-30,27,0.0,25,7.4,0.6375,Moderada,0
FAZENDA ESPÍRITO SANTO,21210000,1,533.0,21,FORMOSA,GOIÁS,ANA,-15.3222,-47.3817,2009-09-05,2019-07-31,11,15.0,3,72.7,0.4775,Limitada,0
FLORES DE GOIÁS,21220000,1,7210.0,21,FLORES DE GOIÁS,GOIÁS,ANA,-14.4508,-47.0472,1975-06-17,2019-10-31,45,3.7,36,20.0,0.9078,Excelente,0
ALVORADA DO NORTE,21300000,1,3760.0,21,ALVORADA DO NORTE,GOIÁS,ANA,-14.4769,-46.4906,1974-10-15,2019-09-30,46,4.3,31,32.6,0.9042,Excelente,0
NOVA ROMA (FAZ.SUCURI),21500000,1,22600.0,21,NOVA ROMA,GOIÁS,ANA,-13.7625,-46.8375,1970-10-14,2019-10-31,50,2.1,43,14.0,0.9174,Excelente,0
PONTE SÃO MATEUS,21510000,1,1020.0,21,GUARANI DE GOIÁS,GOIÁS,ANA,-13.8097,-46.6494,1974-10-21,2006-09-30,33,6.8,24,27.3,0.6717,Moderada,0
SÃO DOMINGOS,21550000,1,290.0,21,SÃO DOMINGOS,GOIÁS,ANA,-13.3947,-46.3189,1974-10-16,1984-12-31,11,0.0,10,9.1,0.4375,Limitada,0
FAZENDA VENEZA,21560000,1,2840.0,21,MONTE ALEGRE DE GOI,GOIÁS,ANA,-13.4986,-46.7803,1976-04-23,2019-08-31,44,6.1,33,25.0,0.8934,Excelente,0
SÃO VICENTE,21580000,1,409.0,21,SÃO DOMINGOS,GOIÁS,ANA,-13.5514,-46.4694,1974-10-19,2019-08-31,46,10.6,32,30.4,0.8664,Excelente,0
4 KM JUS CACH DO FUNIL,21620000,1,30400.0,21,NOVA ROMA,GOIÁS,ANA,-13.4306,-47.2792,1973-09-04,1975-03-21,3,17.9,0,100.0,0.2301,Limitada,0
MONTANTE DA BARRA DO PALMA,21650000,1,40200.0,21,PARANÃ,TOCANTINS,ANA,-12.6211,-47.8861,1977-11-25,2006-09-30,30,0.0,28,6.7,0.675,Moderada,0
LAVANDEIRA,21750000,1,1040.0,21,LAVANDEIRA,TOCANTINS,ANA,-12.7936,-46.5122,1974-10-14,2019-08-31,46,1.3,40,13.0,0.9222,Excelente,0
BARRA DO PALMA,21890000,1,17700.0,21,PARANÃ,TOCANTINS,ANA,-12.6033,-47.8614,1971-12-04,2006-09-25,36,5.4,25,30.6,0.7176,Moderada,0
PARANÃ,21900000,1,57900.0,21,PARANÃ,TOCANTINS,ANA,-12.6136,-47.8944,1970-10-19,2006-09-30,37,1.1,34,8.1,0.7559,Excelente,0
FAZENDA ANGICAL,22040000,1,126000.0,22,PALMEIRÓPOLIS,TOCANTINS,ANA,-12.2511,-48.3467,1974-08-01,2005-11-10,32,2.8,24,25.0,0.6832,Moderada,0
PEIXE,22050001,1,128000.0,22,PEIXE,TOCANTINS,ANA,-12.0231,-48.5328,1970-12-01,2019-10-31,50,0.8,43,14.0,0.9252,Excelente,0
COLONHA,22100000,1,8720.0,22,PEIXE,TOCANTINS,ANA,-12.3922,-48.7117,1974-08-26,2019-10-20,46,7.3,32,30.4,0.8862,Excelente,0
FAZENDA SALINA,22130000,1,878.0,22,PORANGATU,GOIÁS,ANA,-13.1997,-49.1497,1984-04-01,1989-07-31,6,25.3,1,83.3,0.2232,Limitada,0
JACINTO,22150000,1,13900.0,22,PEIXE,TOCANTINS,ANA,-11.9819,-48.6572,1971-12-01,2019-08-31,49,5.9,36,26.5,0.8946,Excelente,0
PORTO ALEGRE,22190000,1,1780.0,22,PORTO ALEGRE DO TOC,TOCANTINS,ANA,-11.6114,-47.0447,1975-08-26,2019-08-31,45,2.9,37,17.8,0.9126,Excelente,0
PORTO JERÔNIMO - FAZ. PIRACICABA,22220000,1,10300.0,22,NATIVIDADE,TOCANTINS,ANA,-11.7586,-47.8367,1974-08-21,2018-09-30,45,3.3,35,22.2,0.9002,Excelente,0
FAZENDA LOBEIRA,22250000,1,14500.0,22,SÃO VALÉRIO DA NATI,TOCANTINS,ANA,-11.5328,-48.2886,1969-08-05,2019-10-31,51,2.7,43,15.7,0.9138,Excelente,0
IPUEIRAS,22280000,1,167000.0,22,IPUEIRAS,TOCANTINS,ANA,-11.2475,-48.4592,2001-02-08,2010-03-04,10,0.0,8,20.0,0.465,Limitada,0
PORTO NACIONAL,22350000,1,174000.0,22,PORTO NACIONAL,TOCANTINS,ANA,-10.7044,-48.4183,1971-12-08,2001-12-31,31,0.0,30,3.2,0.6875,Moderada,0
MIRACEMA DO TOCANTINS,22500000,1,183355.0,22,MIRACEMA DO TOCANTI,TOCANTINS,ANA,-9.5681,-48.38,1969-07-28,2014-12-31,46,0.0,45,2.2,0.88,Excelente,0
JATOBÁ (FAZENDA BOA NOVA),22680000,1,16900.0,22,NOVO ACORDO,TOCANTINS,ANA,-9.9953,-47.4725,1973-06-15,2019-09-30,47,0.0,44,6.4,0.93,Excelente,0
NOVO ACORDO,22700000,1,18000.0,22,NOVO ACORDO,TOCANTINS,ANA,-9.9633,-47.6747,1971-12-09,2019-09-30,49,0.2,45,8.2,0.9288,Excelente,0
PORTO GILÂNDIA,22730000,1,4730.0,22,CRISTALÂNDIA,TOCANTINS,ANA,-10.7667,-47.7833,1969-07-28,1981-12-31,13,0.7,11,15.4,0.4583,Limitada,0
RIO DAS BALSAS,22750000,1,12100.0,22,DOIS IRMÃOS DO TOCA,TOCANTINS,ANA,-10.0003,-47.8275,1975-08-23,1995-06-30,21,7.1,17,19.0,0.5199,Moderada,0
DOIS IRMÃOS,22850000,1,9520.0,22,PEDRO AFONSO,TOCANTINS,ANA,-9.3186,-47.8086,1973-07-13,2010-04-13,38,9.1,32,15.8,0.7604,Excelente,0
PORTO REAL,22900000,1,44100.0,22,PEDRO AFONSO,TOCANTINS,ANA,-9.3069,-47.9292,1969-08-16,2019-09-30,51,0.4,47,7.8,0.9276,Excelente,0
TUPIRATINS,23100000,1,242000.0,23,TUPIRATINS,TOCANTINS,ANA,-8.3917,-48.1114,1969-08-24,2019-09-30,51,0.1,46,9.8,0.9294,Excelente,0
PRÓXIMO COLINAS DE TOCANTINS,23130000,1,386.0,23,COLINAS DO TOCANTIN,TOCANTINS,ANA,-8.0692,-48.4517,1984-02-05,1999-04-27,16,7.5,11,31.2,0.455,Limitada,0
ITACAJA,23150000,1,2800.0,23,ITACAJÁ,TOCANTINS,ANA,-8.3917,-47.7653,1973-08-10,2019-09-30,47,0.5,42,10.6,0.927,Excelente,0
PEDRA CHOROSA,23200000,1,257000.0,23,CARMOLÂNDIA,TOCANTINS,ANA,-7.45,-47.6,1974-07-25,1979-12-31,6,4.5,3,50.0,0.348,Limitada,0
CACHOEIRA MONTE LINDO,23220000,1,3120.0,23,CAMPOS LINDOS,TOCANTINS,ANA,-7.9939,-46.9269,1984-01-20,2014-12-30,31,0.0,29,6.5,0.7675,Excelente,0
JACARÉ,23230000,1,4100.0,23,GOIATINS,TOCANTINS,ANA,-7.9633,-47.2611,1984-01-18,2019-09-30,36,0.0,33,8.3,0.88,Excelente,0
GOIATINS,23250000,1,10100.0,23,GOIATINS,TOCANTINS,ANA,-7.7078,-47.3117,1971-11-20,2019-09-30,49,2.3,42,14.3,0.9162,Excelente,0
RIO ITAPECURU,23251000,1,1060.0,23,CAROLINA,MARANHÃO,ANA,-7.4619,-47.3922,2004-12-06,2019-09-30,16,0.1,13,18.8,0.6294,Moderada,0
CAROLINA,23300000,1,275000.0,23,CAROLINA,MARANHÃO,ANA,-7.3375,-47.4731,1962-01-01,2010-12-31,49,0.0,49,0.0,0.84,Excelente,0
FAZENDA RIO FARINHA,23468000,1,5150.0,23,CAROLINA,MARANHÃO,ANA,-6.8647,-47.4606,1999-11-05,2010-11-30,12,0.0,10,16.7,0.49,Limitada,0
TOCANTINÓPOLIS,23600000,1,289000.0,23,TOCANTINÓPOLIS,TOCANTINS,ANA,-6.2886,-47.3919,1955-01-01,2014-12-30,60,2.6,56,6.7,0.8644,Excelente,0
RIO ITAUEIRAS,23610000,1,1120.0,23,PORTO FRANCO,MARANHÃO,ANA,-6.5353,-47.3036,2004-08-17,2019-10-31,16,6.8,12,25.0,0.5892,Moderada,0
LAJEADO NOVO,23650000,1,2520.0,23,LAJEADO NOVO,MARANHÃO,ANA,-6.1958,-47.0411,1999-11-08,2014-12-31,16,1.7,13,18.8,0.5698,Moderada,0
DESCARRETO,23700000,1,297000.0,23,ITAGUATINS,TOCANTINS,ANA,-5.7894,-47.4689,1973-05-22,2019-10-31,47,0.0,45,4.3,0.93,Excelente,0
ITAGUATINS,23710000,1,297000.0,23,ITAGUATINS,TOCANTINS,ANA,-5.7672,-47.4819,1969-09-27,2010-02-13,42,0.0,40,4.8,0.84,Excelente,0
ALTO ARAGUAIA,24050000,1,2080.0,24,ALTO ARAGUAIA,MATO GROSSO,ANA,-17.3011,-53.2172,1965-01-01,2014-12-30,50,0.5,48,4.0,0.877,Excelente,0
MONTANTE DO RIBEIRÃO BABILÔNIA,24070000,1,1760.0,24,SANTA RITA DO ARAGU,GOIÁS,ANA,-17.2208,-53.1631,1997-09-20,2019-07-31,23,0.0,20,13.0,0.7175,Moderada,0
CACHOEIRA GRANDE,24100000,1,4460.0,24,ALTO ARAGUAIA,MATO GROSSO,ANA,-17.1611,-53.1386,1963-11-15,1991-10-31,29,0.0,27,6.9,0.6625,Moderada,0
ARAGUAINHA,24150000,1,1200.0,24,ALTO ARAGUAIA,MATO GROSSO,ANA,-16.8569,-53.0378,1967-10-20,1971-12-31,5,13.8,3,40.0,0.2797,Limitada,0
BARRA DO PEIXE,24180000,1,10800.0,24,TORIXORÉU,MATO GROSSO,ANA,-16.5575,-52.6706,1973-09-17,1989-09-30,17,0.0,15,11.8,0.5125,Moderada,0
RIO DO PEIXE,24196000,1,1770.0,24,DOVERLÂNDIA,GOIÁS,ANA,-16.7186,-52.3322,2000-06-21,2019-07-31,20,4.6,11,45.0,0.6524,Moderada,0
TORIXOREU,24200000,1,18400.0,24,TORIXORÉU,MATO GROSSO,ANA,-16.2006,-52.5497,1971-05-28,2019-07-09,49,1.5,44,10.2,0.921,Excelente,0
TESOURO,24500000,1,5280.0,24,TESOURO,MATO GROSSO,ANA,-16.0778,-53.5481,1966-07-27,2019-08-31,54,0.0,52,3.7,0.93,Excelente,0
GENERAL CARNEIRO,24650000,1,1950.0,24,GENERAL CARNEIRO,MATO GROSSO,ANA,-15.7111,-52.7544,1967-10-18,2007-12-31,41,10.5,27,34.1,0.747,Moderada,0
BARRA DO GARÇAS,24700000,1,36800.0,24,ARAGARÇAS,GOIÁS,ANA,-15.8914,-52.2278,1970-12-01,2019-10-31,50,0.0,48,4.0,0.93,Excelente,0
SÃO FERREIRA,24750000,1,6430.0,24,ARENÓPOLIS,GOIÁS,ANA,-16.3025,-51.4692,1974-06-17,2019-07-31,46,0.0,44,4.3,0.93,Excelente,0
PIRANHAS,24780000,1,1360.0,24,PIRANHAS,GOIÁS,ANA,-16.4306,-51.8164,1974-10-23,2019-07-31,46,0.0,44,4.3,0.93,Excelente,0
PERES,24800000,1,12000.0,24,ARAGARÇAS,GOIÁS,ANA,-15.8897,-51.8528,1971-11-24,2019-10-31,49,1.9,42,14.3,0.9186,Excelente,0
ARAGUAIANA,24850000,1,50100.0,24,ARAGUAIANA,MATO GROSSO,ANA,-15.7381,-51.8281,1974-04-21,2019-10-31,46,0.0,44,4.3,0.93,Excelente,0
IVOLÂNDIA,24900000,1,2060.0,24,IVOLÂNDIA,GOIÁS,ANA,-16.5125,-50.9967,1975-06-28,2019-07-31,45,0.0,43,4.4,0.93,Excelente,0
MONTES CLAROS DE GOIÁS,24950000,1,10100.0,24,MONTES CLAROS DE GO,GOIÁS,ANA,-15.9397,-51.3575,1971-11-26,2019-10-31,49,0.0,45,8.2,0.93,Excelente,0
FAZENDA PARAÍSO,25070000,1,19.4,25,GOIÁS,GOIÁS,ANA,-15.9158,-50.0742,2002-10-09,2010-02-28,9,0.0,7,22.2,0.4525,Limitada,0
CHAÁCARA CÓRREGO FUNDO,25080000,1,,25,GOIÁS,GOIÁS,ANA,-15.9008,-50.1106,2002-10-07,2006-09-30,5,0.0,3,40.0,0.3625,Limitada,0
FAZENDA PACIÊNCIA,25090000,1,103.0,25,GOIÁS,GOIÁS,ANA,-15.9147,-50.1278,2002-10-05,2019-10-31,18,0.0,15,16.7,0.655,Moderada,0
BALNEÁRIO CACHOEIRA GRANDE,25100000,1,229.0,25,GOIÁS,GOIÁS,ANA,-15.9222,-50.1717,1965-02-03,2019-10-31,55,20.9,35,36.4,0.8046,Excelente,0
COLÔNIA DOS ALEMÃES,25120000,1,261.0,25,GOIÁS,GOIÁS,ANA,-15.8969,-50.4386,1984-03-04,2018-10-10,35,0.0,33,5.7,0.8575,Excelente,0
TRAVESSÃO,25130000,1,5310.0,25,MATRINCHÃ,GOIÁS,ANA,-15.5358,-50.7047,1974-06-17,2019-10-31,46,0.6,41,10.9,0.9264,Excelente,0
FAZENDA ÁGUA LIMPA,25140000,1,3280.0,25,BRITÂNIA,GOIÁS,ANA,-15.3625,-51.1756,2000-07-25,2019-09-30,20,2.5,15,25.0,0.665,Moderada,0
ARUANÃ,25200000,1,76300.0,25,ARUANÃ,GOIÁS,ANA,-14.9128,-51.0814,1969-11-16,2019-10-31,51,0.5,46,9.8,0.927,Excelente,0
PONTE RIO TESOURAS,25500000,1,1800.0,25,CRIXAS,GOIÁS,ANA,-14.7167,-50.5,1974-06-17,1989-12-31,16,33.8,7,56.2,0.2972,Limitada,0
BANDEIRANTES,25700000,1,92300.0,25,NOVA CRIXÁS,GOIÁS,ANA,-13.6897,-50.8,1974-07-01,2019-10-31,46,0.9,41,10.9,0.9246,Excelente,0
RIO CRIXAS-AÇU,25750000,1,8660.0,25,UIRAPURU,GOIÁS,ANA,-13.8986,-49.9514,1999-11-06,2019-07-31,21,0.0,19,9.5,0.6925,Moderada,0
JUSANTE DO RIO PINTADO,25800000,1,18300.0,25,SÃO MIGUEL DO ARAGU,GOIÁS,ANA,-13.5614,-50.4011,1980-09-19,2019-05-01,40,12.0,27,32.5,0.858,Excelente,0
PASSAGEM RIO CRIXAS,25850000,1,3150.0,25,CRIXAS,GOIÁS,ANA,-13.9136,-50.5297,1983-01-24,1984-12-31,2,0.0,1,50.0,0.325,Limitada,0
LUIZ ALVES,25950000,1,117000.0,25,SÃO MIGUEL DO ARAGU,GOIÁS,ANA,-13.2097,-50.585,1973-08-15,2014-12-31,42,0.0,41,2.4,0.88,Excelente,0
JUSANTE  BARRA DO FORQUILHA,26015000,1,10500.0,26,NOVO SANTO ANTÔNIO,MATO GROSSO,ANA,-12.8836,-50.8322,1984-04-23,2005-03-20,22,13.3,8,63.6,0.4952,Limitada,0
FAZENDA TELESFORO,26030000,1,131000.0,26,CARIRI DO TOCANTINS,TOCANTINS,ANA,-11.9167,-50.6667,1969-08-24,1996-02-13,28,11.7,21,25.0,0.5798,Moderada,0
RIO DAS MORTES,26040000,1,5230.0,26,PRIMAVERA DO LESTE,MATO GROSSO,ANA,-15.3147,-54.1758,1976-04-14,2010-04-09,35,0.8,32,8.6,0.7727,Excelente,0
PRESIDENTE MURTINHO,26045000,1,451.0,26,GENERAL CARNEIRO,MATO GROSSO,ANA,-15.6333,-53.8833,1979-02-13,1985-04-20,7,0.0,5,28.6,0.3875,Limitada,0
TORIQUEJE,26050000,1,17700.0,26,BARRA DO GARÇAS,MATO GROSSO,ANA,-15.2492,-53.0558,1967-12-15,2019-09-30,53,0.7,49,7.5,0.9258,Excelente,0
XAVANTINA,26100000,1,25300.0,26,NOVA XAVANTINA,MATO GROSSO,ANA,-14.6725,-52.355,1969-01-01,2019-08-31,51,0.3,48,5.9,0.9282,Excelente,0
RIO PINDAIBA,26150000,1,9390.0,26,NOVA XAVANTINA,MATO GROSSO,ANA,-14.5997,-51.7197,1999-10-18,2019-08-31,21,0.1,17,19.0,0.6919,Moderada,0
TRECHO MÉDIO,26200000,1,41100.0,26,COCALINHO,MATO GROSSO,ANA,-14.0867,-51.6964,1980-11-23,2019-08-31,40,0.4,37,7.5,0.9276,Excelente,0
SANTO ANTÔNIO DO LEVERGER,26300000,1,59300.0,26,NOVO SANTO ANTÔNIO,MATO GROSSO,ANA,-12.2919,-50.9636,1969-09-04,2019-08-31,51,0.0,49,3.9,0.93,Excelente,0
SÃO FÉLIX DO ARAGUAIA,26350000,1,194000.0,26,SÃO FÉLIX DO ARAGUA,MATO GROSSO,ANA,-11.6181,-50.6625,1973-08-01,2019-08-31,47,0.3,44,6.4,0.9282,Excelente,0
LUCIARA,26400000,1,195000.0,26,LUCIARA,MATO GROSSO,ANA,-10.7167,-50.6,1969-08-27,1972-02-29,4,0.0,2,50.0,0.35,Limitada,0
JUSANTE CRISOSTOMO,26700000,1,228000.0,26,LUCIARA,MATO GROSSO,ANA,-10.2833,-50.4167,1980-08-27,1993-12-31,14,25.1,8,42.9,0.3244,Limitada,0
BARREIRA DO PEQUI,26710000,1,8150.0,26,SANDOLÂNDIA,TOCANTINS,ANA,-12.0986,-49.9481,1986-04-16,2019-07-31,34,3.0,30,11.8,0.837,Excelente,0
FAZENDA COBRAPE,26711000,1,10500.0,26,FORMOSO DO ARAGUAIA,TOCANTINS,ANA,-11.4644,-50.0078,2014-05-15,2019-07-31,6,1.7,3,50.0,0.4948,Limitada,0
PRAIA ALTA,26720000,1,6610.0,26,SANDOLÂNDIA,TOCANTINS,ANA,-12.4178,-49.5892,1986-04-20,2019-07-31,34,0.3,31,8.8,0.8532,Excelente,0
PROJETO RIO FORMOSO,26730000,1,9040.0,26,FORMOSO DO ARAGUAIA,TOCANTINS,ANA,-11.8392,-49.7711,2003-09-26,2019-10-31,17,0.0,15,11.8,0.6425,Moderada,0
PROJETO RIO FORMOSO,26750000,1,8090.0,26,FORMOSO DO ARAGUAIA,TOCANTINS,ANA,-12.0667,-49.7333,1980-12-06,1995-05-31,16,5.4,10,37.5,0.4676,Limitada,0
PONTE RIO DUERÉ,26790000,1,1420.0,26,ALIANÇA DO TOCANTIN,TOCANTINS,ANA,-11.3231,-49.2592,2000-09-23,2019-07-31,20,7.0,14,30.0,0.638,Moderada,0
BARREIRA DA CRUZ,26800000,1,35800.0,26,PIUM,TOCANTINS,ANA,-10.5647,-49.9342,1977-12-12,2019-09-30,43,13.7,32,25.6,0.8478,Excelente,0
RIO MARIA,27060000,1,805.0,27,RIO MARIA,PARÁ,ANA,-7.3083,-50.0431,2017-10-01,2018-04-30,2,0.5,0,100.0,0.442,Limitada,0
CASEARA,27100000,1,5930.0,27,CASEARA,TOCANTINS,ANA,-9.7333,-50.0167,1980-09-26,1984-03-31,5,49.3,0,100.0,0.0667,Limitada,0
RIO DO COCO,27110000,1,6370.0,27,CASEARA,TOCANTINS,ANA,-9.5003,-49.9831,1999-08-24,2014-12-31,16,0.0,15,6.2,0.58,Moderada,0
RIO CAIAPÓ,27300000,1,3900.0,27,ANGICO,TOCANTINS,ANA,-9.3,-49.7,1973-09-25,1977-09-27,5,58.2,0,100.0,0.0625,Limitada,0
FAZENDA CRAVEIRO,27370000,1,186.0,27,ABREULÂNDIA,TOCANTINS,ANA,-9.6036,-48.9708,2000-05-13,2018-10-24,19,0.9,15,21.1,0.6521,Moderada,0
PONTE RIO PIRANHAS,27380000,1,1660.0,27,DOIS IRMÃOS DO TOCA,TOCANTINS,ANA,-9.1839,-49.3775,1980-08-29,2019-08-31,40,9.4,28,30.0,0.8736,Excelente,0
CONCEIÇÃO DO ARAGUAIA,27500000,1,332000.0,27,CONCEIÇÃO DO ARAGUA,PARÁ,ANA,-8.2694,-49.2594,1969-10-01,2019-09-30,51,0.0,49,3.9,0.93,Excelente,0
BERNARDO SAYÃO,27530000,1,1790.0,27,BERNARDO SAYÃO,TOCANTINS,ANA,-7.8758,-48.8775,2000-05-28,2018-10-12,19,0.1,15,21.1,0.6569,Moderada,0
CHÁCARA VILA RICA,27540000,1,1470.0,27,PAU D'ARCO,TOCANTINS,ANA,-7.8444,-50.045,2008-09-17,2019-09-30,12,9.1,3,75.0,0.5254,Moderada,0
ARAPOEMA,27550000,1,1150.0,27,ARAPOEMA,TOCANTINS,ANA,-7.6136,-49.0453,1985-03-19,2019-09-30,35,0.8,32,8.6,0.8627,Excelente,0
RIO MARIA,27660000,1,805.0,27,RIO MARIA,PARÁ,ANA,-7.3083,-50.0431,2008-09-13,2019-10-31,12,22.2,3,75.0,0.4468,Limitada,0
MURICILÂNDIA,28150000,1,1580.0,28,MURICILÂNDIA,TOCANTINS,ANA,-7.1464,-48.6108,1974-08-23,2019-10-31,46,0.6,39,15.2,0.9264,Excelente,0
PONTE RIO LONTRA,28200000,1,1330.0,28,ARAGUAÍNA,TOCANTINS,ANA,-7.2075,-48.2958,2000-03-15,2014-12-31,15,3.4,11,26.7,0.5471,Moderada,0
PIRAQUÊ,28240000,1,3470.0,28,PIRAQUÊ,TOCANTINS,ANA,-6.6717,-48.4697,1974-08-26,2019-11-30,46,8.5,29,37.0,0.879,Excelente,0
XAMBIOÁ,28300000,1,377000.0,28,XAMBIOÁ,TOCANTINS,ANA,-6.4097,-48.5422,1969-09-01,2019-11-30,51,0.0,48,5.9,0.93,Excelente,0
PONTE RIO CORDA,28320000,1,2140.0,28,ARAGOMINAS,TOCANTINS,ANA,-6.4667,-48.2,1988-01-01,1989-12-31,2,20.9,0,100.0,0.1996,Limitada,0
MONTANTE DO RIO RONCA,28840000,1,1530.0,28,SÃO BENTO DO TOCANT,TOCANTINS,ANA,-6.0428,-48.1997,2000-10-10,2019-11-30,20,2.2,16,20.0,0.6668,Moderada,0
ARAGUATINS,28850000,1,388000.0,28,ARAGUATINS,TOCANTINS,ANA,-5.6514,-48.1325,1974-08-26,2019-10-31,46,0.1,43,6.5,0.9294,Excelente,0
FAZENDA CAIÇARA,29020000,1,340.0,29,ÁGUA AZUL DO NORTE,PARÁ,ANA,-6.8147,-50.5403,2008-09-12,2019-10-31,12,24.7,4,66.7,0.4318,Limitada,0
MARABÁ,29050000,1,703000.0,29,MARABÁ,PARÁ,ANA,-5.3386,-49.1244,1971-10-01,2019-11-30,49,0.2,46,6.1,0.9288,Excelente,0
PARAUAPEBAS,29070100,1,6850.0,29,PARAUAPEBAS,PARÁ,ANA,-6.0914,-49.9044,2010-03-30,2019-11-30,10,3.5,7,30.0,0.534,Moderada,0
FAZENDA RIO BRANCO,29080000,1,8450.0,29,MARABÁ,PARÁ,ANA,-5.7833,-49.8,1985-04-06,1995-08-31,11,31.1,2,81.8,0.2509,Limitada,0
FAZENDA ALEGRIA,29100000,1,37500.0,29,MARABÁ,PARÁ,ANA,-5.4867,-49.2214,1969-08-01,2019-11-24,51,7.2,39,23.5,0.8868,Excelente,0
ITUPIRANGA,29200000,1,746000.0,29,ITUPIRANGA,PARÁ,ANA,-5.1281,-49.3242,1969-07-06,2014-12-31,46,1.8,42,8.7,0.8692,Excelente,0
TUCURUÍ - 7 KM A MONTANTE,29690000,1,763000.0,29,TUCURUÍ,PARÁ,ANA,-3.7833,-49.6833,1978-01-01,1979-12-31,2,0.0,2,0.0,0.325,Limitada,0
TUCURUÍ,29700000,1,764000.0,29,TUCURUÍ,PARÁ,ANA,-3.7578,-49.6533,1969-07-01,2016-03-22,48,1.9,39,18.8,0.8886,Excelente,0
ESTIRÃO DO CRICOU,30050000,1,22200.0,30,OIAPOQUE,AMAPÁ,ANA,3.7217,-51.9308,1982-12-06,2012-08-22,31,60.0,3,90.3,0.4475,Limitada,0
PONTE CASSIPORE,30055000,1,3330.0,30,OIAPOQUE,AMAPÁ,ANA,2.9567,-51.4219,1997-06-13,2019-11-30,23,1.5,19,17.4,0.7085,Moderada,0
COOPERATIVA 1. BRAÇO,30058000,1,514.0,30,OIAPOQUE,AMAPÁ,ANA,3.0422,-51.4611,1997-06-15,2019-11-30,23,0.0,21,8.7,0.7175,Moderada,0
RETIRO SANTA ISABEL,30060000,1,4060.0,30,CALÇOENE,AMAPÁ,ANA,3.05,-51.3667,1984-07-01,1994-04-30,11,37.7,4,63.6,0.2113,Limitada,0
CUNANI,30070000,1,296.0,30,CALÇOENE,AMAPÁ,ANA,2.6978,-51.3611,1995-10-07,2019-11-30,25,0.3,21,16.0,0.7407,Moderada,0
TARTARUGAL GRANDE,30075000,1,1810.0,30,TARTARUGALZINHO,AMAPÁ,ANA,1.3978,-50.925,1997-03-26,2019-11-30,23,0.0,20,13.0,0.7175,Moderada,0
CAPIVARA,30080000,1,10600.0,30,PORTO GRANDE,AMAPÁ,ANA,0.9861,-51.7064,1981-03-22,2019-10-31,39,0.7,33,15.4,0.9133,Excelente,0
RAMOS,30100000,1,4170.0,30,MACAPÁ,AMAPÁ,ANA,0.966667,-51.6,1979-05-30,1982-08-26,4,0.0,2,50.0,0.35,Limitada,0
SERRA DO NAVIO,30300000,1,10800.0,30,SERRA DO NAVIO,AMAPÁ,ANA,0.9006,-52.0156,1972-06-16,2019-10-31,48,1.0,44,8.3,0.924,Excelente,0
PORTO PLATON,30400000,1,30400.0,30,PORTO GRANDE,AMAPÁ,ANA,0.7075,-51.4389,1952-01-01,2017-09-22,66,21.1,49,25.8,0.7834,Excelente,0
CACHOEIRA TRACAMBEUA,31020000,1,5000.0,31,MOJU,PARÁ,ANA,-3.5128,-49.2133,1982-09-22,2019-09-24,38,31.5,19,50.0,0.716,Moderada,0
VILA CAPOEIRA,31490000,1,3440.0,31,CAPITÃO POÇO,PARÁ,ANA,-1.8669,-47.0547,1977-01-18,2019-08-31,43,0.0,40,7.0,0.93,Excelente,0
CACHOEIRINHA,31500000,1,4990.0,31,CAPITÃO POÇO,PARÁ,ANA,-1.55,-47.0667,1965-08-16,1970-09-15,6,0.1,3,50.0,0.3744,Limitada,0
BOM JARDIM,31520000,1,5220.0,31,OURÉM,PARÁ,ANA,-1.5406,-47.0656,1965-01-01,2019-08-31,55,0.0,53,3.6,0.93,Excelente,0
MARAMBAIA,31600000,1,32.7,31,CAPITÃO POÇO,PARÁ,ANA,-1.6522,-47.1167,1964-11-29,2016-03-31,53,16.6,39,26.4,0.8004,Excelente,0
TAUIRI,31650000,1,20400.0,31,SÃO DOMINGOS DO CAP,PARÁ,ANA,-3.5,-48.8333,1977-06-19,1988-04-05,12,0.0,10,16.7,0.45,Limitada,0
FAZENDA MARINGA,31680000,1,25900.0,31,TOMÉ-AÇU,PARÁ,ANA,-3.1372,-48.0847,1982-10-24,2019-11-30,38,0.0,36,5.3,0.905,Excelente,0
BADAJÓS,31700000,1,32200.0,31,SÃO DOMINGOS DO CAP,PARÁ,ANA,-2.5128,-47.7681,1971-05-13,2019-11-30,49,0.2,45,8.2,0.9288,Excelente,0
PORTO DE MINAS,31850000,1,65.3,31,SANTA ISABEL DO PAR,PARÁ,ANA,-1.3531,-48.1533,1965-07-27,1968-05-15,4,0.7,1,75.0,0.3458,Limitada,0
ARRAIAL,32300000,1,290.0,32,OURÉM,PARÁ,ANA,-1.31667,-47.1167,1965-01-01,1972-01-31,8,0.0,7,12.5,0.4,Limitada,0
TENTUGAL,32320000,1,681.0,32,OURÉM,PARÁ,ANA,-1.31667,-46.9833,1964-11-01,1969-01-31,6,0.0,4,33.3,0.375,Limitada,0
NOVA MOCAJUBA,32350000,1,1130.0,32,BRAGANÇA,PARÁ,ANA,-1.2728,-46.8894,1964-10-16,2019-07-31,56,50.4,26,53.6,0.63,Moderada,0
SETE ILHAS,32400000,1,1800.0,32,VISEU,PARÁ,ANA,-1.8581,-46.7089,1977-06-24,2012-09-30,36,2.2,30,16.7,0.7968,Excelente,0
TARARUA,32450000,1,2680.0,32,VISEU,PARÁ,ANA,-1.7,-46.6,1965-12-01,1979-10-31,15,0.0,13,13.3,0.4875,Limitada,0
TARARUA - PONTE,32450002,1,2630.0,32,VISEU,PARÁ,ANA,-1.7353,-46.5914,1975-07-21,2019-09-30,45,4.4,37,17.8,0.9036,Excelente,0
FAZENDA RURAL ZEBU,32540000,1,16300.0,32,PARAGOMINAS,PARÁ,ANA,-3.3197,-46.8456,1980-12-16,2019-10-31,40,16.1,29,27.5,0.8334,Excelente,0
CAFEZAL,32550000,1,4690.0,32,PARAGOMINAS,PARÁ,ANA,-2.7717,-46.8028,1985-02-26,2019-11-30,35,0.0,33,5.7,0.8675,Excelente,0
CANINDÉ,32580000,1,27400.0,32,PARAGOMINAS,PARÁ,ANA,-2.5622,-46.4969,1983-01-01,1985-01-31,3,7.6,1,66.7,0.2919,Limitada,0
CAMIRANGA,32600000,1,32800.0,32,VISEU,PARÁ,ANA,-1.8,-46.2833,1972-06-01,1974-03-31,3,5.8,0,100.0,0.3027,Limitada,0
ALTO BONITO,32620000,1,32900.0,32,VISEU,PARÁ,ANA,-1.8006,-46.3161,1972-01-01,2019-11-30,48,0.9,43,10.4,0.9246,Excelente,0
MARACACUME,32740000,1,2200.0,32,CÂNDIDO MENDES,MARANHÃO,ANA,-2.0536,-45.9556,1971-12-28,2019-09-30,49,1.7,42,14.3,0.9198,Excelente,0
ALTO TURI,32830000,1,3870.0,32,MONÇÃO,MARANHÃO,ANA,-2.9442,-45.6672,1971-12-26,2019-09-30,49,1.1,44,10.2,0.9234,Excelente,0
BR-316 / RIO PARUÁ,32850000,1,724.0,32,TURIAÇU,MARANHÃO,ANA,-2.5031,-45.785,1981-09-24,2019-09-30,39,5.5,31,20.5,0.8845,Excelente,0
VALE DO PINDARÉ,33025000,1,5480.0,33,AÇAILÂNDIA,MARANHÃO,ANA,-5.7658,-45.98,1979-01-23,2019-12-31,41,8.0,31,24.4,0.882,Excelente,0
PONTE BR-222,33050000,1,5150.0,33,BURITICUPU,MARANHÃO,ANA,-4.2992,-46.4942,2018-01-01,2018-11-30,1,0.0,0,100.0,0.4325,Limitada,0
FAZENDA VARIG,33070000,1,10400.0,33,BOM JESUS DAS SELVA,MARANHÃO,ANA,-4.2008,-46.4872,2004-11-01,2018-09-30,15,0.6,11,26.7,0.6039,Moderada,0
PONTE BR-222,33075000,1,4750.0,33,SANTA LUZIA,MARANHÃO,ANA,-4.2989,-46.4944,1979-01-25,2018-09-30,40,1.0,36,10.0,0.914,Excelente,0
ALTO ALEGRE,33080000,1,23400.0,33,ALTO ALEGRE DO PIND,MARANHÃO,ANA,-4.0303,-45.7711,1999-12-04,2019-12-31,21,0.0,20,4.8,0.6925,Moderada,0
ESPERANTINA,33170000,1,5930.0,33,SANTA LUZIA,MARANHÃO,ANA,-4.0339,-45.7786,1972-05-16,2018-10-31,47,1.7,38,19.1,0.9098,Excelente,0
PINDARÉ-MIRIM,33190000,1,35400.0,33,PINDARÉ-MIRIM,MARANHÃO,ANA,-3.6597,-45.4661,1971-12-25,2018-08-31,48,0.0,46,4.2,0.92,Excelente,0
FAZENDA REMANSO,33205000,1,3730.0,33,GRAJAU,MARANHÃO,ANA,-5.7667,-45.9828,1979-01-25,2019-12-31,41,0.4,39,4.9,0.9276,Excelente,0
PAPAGAIO,33212000,1,93.4,33,FERNANDO FALCÃO,MARANHÃO,ANA,-5.9833,-45.4003,2004-09-29,2018-09-30,15,2.4,10,33.3,0.5931,Moderada,0
SÃO CARLOS,33214000,1,523.0,33,BARRA DO CORDA,MARANHÃO,ANA,-5.8886,-45.3128,2003-10-01,2018-12-31,16,0.6,13,18.8,0.6164,Moderada,0
RIO CORDA II,33215000,1,3000.0,33,BARRA DO CORDA,MARANHÃO,ANA,-5.735,-45.3183,1981-10-21,2019-11-30,39,0.0,36,7.7,0.9175,Excelente,0
RIO CORDA,33220000,1,4560.0,33,BARRA DO CORDA,MARANHÃO,ANA,-5.65,-45.2667,1972-01-01,1979-12-31,8,0.0,8,0.0,0.4,Limitada,0
FAZENDA OURIVES,33222000,1,876.0,33,BARRA DO CORDA,MARANHÃO,ANA,-5.7794,-45.1736,2004-10-27,2018-09-30,15,4.0,10,33.3,0.5835,Moderada,0
BARRA DO CORDA,33250000,1,13200.0,33,BARRA DO CORDA,MARANHÃO,ANA,-5.5006,-45.2436,1964-01-01,2018-11-30,55,2.6,50,9.1,0.9044,Excelente,0
SANTA VITÓRIA,33260000,1,15400.0,33,BARRA DO CORDA,MARANHÃO,ANA,-5.1019,-44.9614,1972-01-01,2018-11-30,47,0.0,46,2.1,0.92,Excelente,0
FLORES,33270000,1,1320.0,33,PRESIDENTE DUTRA,MARANHÃO,ANA,-5.4194,-44.9278,1971-12-10,2018-11-30,48,3.1,38,20.8,0.9014,Excelente,0
JOSELÂNDIA,33273000,1,5900.0,33,JOSELÂNDIA,MARANHÃO,ANA,-4.9253,-44.6181,2000-01-28,2018-11-30,19,0.9,15,21.1,0.6521,Moderada,0
PEDREIRAS,33280000,1,24000.0,33,PEDREIRAS,MARANHÃO,ANA,-4.57,-44.605,1968-07-01,1982-02-21,15,0.6,12,20.0,0.4839,Limitada,0
PEDREIRAS II,33281000,1,24000.0,33,PEDREIRAS,MARANHÃO,ANA,-4.57,-44.6106,1978-02-03,2019-12-31,42,0.0,40,4.8,0.93,Excelente,0
SÃO LUIZ GONZAGA,33286000,1,25200.0,33,SÃO LUÍS GONZAGA DO,MARANHÃO,ANA,-4.37,-44.6758,1989-08-27,2018-11-30,30,0.0,28,6.7,0.795,Excelente,0
BACABAL,33290000,1,25500.0,33,BACABAL,MARANHÃO,ANA,-4.2194,-44.7653,1975-09-11,2019-12-31,45,0.6,42,6.7,0.9264,Excelente,0
GRAJAU,33320000,1,4510.0,33,GRAJAU,MARANHÃO,ANA,-5.8117,-46.1397,1968-06-01,1982-02-09,15,5.3,10,33.3,0.4557,Limitada,0
GRAJAU II,33321000,1,4510.0,33,GRAJAU,MARANHÃO,ANA,-5.8222,-46.1422,1978-07-29,2019-12-31,42,1.7,35,16.7,0.9198,Excelente,0
FORTALEZA,33330000,1,3590.0,33,GRAJAU,MARANHÃO,ANA,-5.5944,-46.2403,1979-10-25,2018-11-30,40,4.2,34,15.0,0.8948,Excelente,0
ITAIPAVA DO GRAJAÚ,33333000,1,11400.0,33,ARAME,MARANHÃO,ANA,-5.1447,-45.7953,2003-10-04,2018-11-30,16,4.1,10,37.5,0.5954,Moderada,0
GADO BRAVO,33340000,1,3790.0,33,GRAJAU,MARANHÃO,ANA,-5.58333,-46.2333,1971-12-12,1979-12-31,9,0.0,8,11.1,0.4125,Limitada,0
MADAIL,33360000,1,12900.0,33,ARAME,MARANHÃO,ANA,-4.9317,-45.5753,1971-12-19,1977-10-31,7,1.4,4,42.9,0.3791,Limitada,0
FAZENDA SABESA,33365000,1,17200.0,33,PAULO RAMOS,MARANHÃO,ANA,-4.5372,-45.3281,1999-12-09,2018-11-30,20,0.0,18,10.0,0.67,Moderada,0
ARATOÍ GRANDE,33380000,1,20300.0,33,BELA VISTA DO MARAN,MARANHÃO,ANA,-3.7722,-45.2181,1970-02-10,2018-11-30,49,4.6,40,18.4,0.8924,Excelente,0
SÃO FELINHO,33410000,1,3660.0,33,SÃO DOMINGOS DO AZE,MARANHÃO,ANA,-6.6992,-44.715,1999-10-05,2019-12-31,21,0.0,20,4.8,0.6925,Moderada,0
MIRADOR,33420000,1,6060.0,33,MIRADOR,MARANHÃO,ANA,-6.3708,-44.3603,1968-06-01,2018-11-30,51,0.2,48,5.9,0.9188,Excelente,0
FERNANDO FALCÃO,33430000,1,4710.0,33,FERNANDO FALCÃO,MARANHÃO,ANA,-6.17,-44.8689,2000-01-29,2018-11-30,19,0.9,16,15.8,0.6521,Moderada,0
CAMPO LARGO,33450000,1,5750.0,33,MIRADOR,MARANHÃO,ANA,-6.0669,-44.7083,1971-12-04,2018-09-30,48,0.4,45,6.2,0.9176,Excelente,0
PORTO DO LOPES,33460000,1,6890.0,33,MIRADOR,MARANHÃO,ANA,-6.0072,-44.34,1970-05-01,2019-12-31,50,0.2,48,4.0,0.9288,Excelente,0
COLINAS,33480000,1,15000.0,33,COLINAS,MARANHÃO,ANA,-6.0208,-44.2486,1968-06-01,2019-12-31,52,0.0,51,1.9,0.93,Excelente,0
NAZARÉ,33490000,1,2290.0,33,COLINAS,MARANHÃO,ANA,-5.9217,-43.7939,1999-11-01,2019-12-31,21,13.1,8,61.9,0.6139,Moderada,0
MENDES,33520000,1,5320.0,33,BURITI BRAVO,MARANHÃO,ANA,-5.7061,-43.5861,1972-03-01,2018-11-30,47,0.8,42,10.6,0.9152,Excelente,0
MONTEVIDÉU,33530000,1,27300.0,33,GOVERNADOR EUGENIO,MARANHÃO,ANA,-5.3372,-43.8844,1975-01-10,2018-11-30,44,0.6,40,9.1,0.9164,Excelente,0
CAXIAS,33550000,1,32700.0,33,CAXIAS,MARANHÃO,ANA,-4.865,-43.3675,1963-04-16,2018-11-30,56,2.0,50,10.7,0.908,Excelente,0
CODÓ,33590000,1,37200.0,33,CODÓ,MARANHÃO,ANA,-4.4583,-43.875,1968-06-01,2019-09-30,52,0.4,48,7.7,0.9276,Excelente,0
FAZENDA SOBRAL,33620000,1,5560.0,33,CODÓ,MARANHÃO,ANA,-4.4653,-43.9333,1972-03-28,2019-12-31,48,3.9,35,27.1,0.9066,Excelente,0
COROATÁ,33630000,1,43800.0,33,COROATA,MARANHÃO,ANA,-4.1258,-44.1297,1975-01-01,2019-12-31,45,0.5,41,8.9,0.927,Excelente,0
SÃO MATEUS,33631000,1,646.0,33,SÃO MATEUS DO MARAN,MARANHÃO,ANA,-4.0103,-44.4417,2004-10-01,2018-12-31,15,13.3,4,73.3,0.5277,Moderada,0
PEDRAS,33638000,1,1010.0,33,PIRAPEMAS,MARANHÃO,ANA,-3.9333,-44.0222,1979-04-14,2018-11-30,40,30.3,11,72.5,0.7382,Moderada,0
PIRAPEMAS,33640000,1,1470.0,33,PIRAPEMAS,MARANHÃO,ANA,-3.75,-44.15,1972-01-01,1981-12-31,10,13.8,7,30.0,0.3422,Limitada,0
PIRITORÓ,33660000,1,3060.0,33,PIRAPEMAS,MARANHÃO,ANA,-3.71667,-44.2833,1972-01-01,1989-01-31,18,8.0,13,27.8,0.477,Limitada,0
PIRITORÓ II,33661000,1,3060.0,33,PIRAPEMAS,MARANHÃO,ANA,-3.7064,-44.2872,1984-11-01,2018-11-30,35,8.3,15,57.1,0.8077,Excelente,0
CANTANHEDE,33680000,1,49900.0,33,CANTANHEDE,MARANHÃO,ANA,-3.6278,-44.3792,1968-06-01,2018-11-30,51,1.8,44,13.7,0.9092,Excelente,0
MORRO ALTO,33700000,1,2040.0,33,BARREIRINHAS,MARANHÃO,ANA,-2.9686,-42.9467,1999-01-01,2019-12-31,21,5.0,16,23.8,0.6625,Moderada,0
FAZENDA CAPUEIRA,33720000,1,733.0,33,AFONSO CUNHA,MARANHÃO,ANA,-4.1669,-43.2239,2002-12-23,2019-12-31,18,9.8,10,44.4,0.5962,Moderada,0
MUNIM,33730000,1,4210.0,33,VARGEM GRANDE,MARANHÃO,ANA,-3.5775,-43.7028,1971-12-12,2019-04-30,49,3.2,42,14.3,0.9108,Excelente,0
BONSUCESSO,33750000,1,1610.0,33,MATA ROMA,MARANHÃO,ANA,-3.5678,-43.3169,1999-11-25,2019-12-31,21,0.3,19,9.5,0.6907,Moderada,0
SÃO BENEDITO,33760000,1,3990.0,33,SÃO BENEDITO DO RIO,MARANHÃO,ANA,-3.3347,-43.525,1975-01-12,2019-10-31,45,0.6,39,13.3,0.9264,Excelente,0
IGUARÁ,33770000,1,2630.0,33,VARGEM GRANDE,MARANHÃO,ANA,-3.5525,-43.8722,1971-12-13,2018-11-30,48,16.5,13,72.9,0.821,Excelente,0
NINA RODRIGUES,33780000,1,12600.0,33,NINA RODRIGUES,MARANHÃO,ANA,-3.5525,-43.8722,1963-08-10,2018-11-30,56,3.1,47,16.1,0.9014,Excelente,0
URBANO SANTOS,33790000,1,669.0,33,URBANO SANTOS,MARANHÃO,ANA,-3.2092,-43.4064,2004-11-03,2018-11-30,15,0.0,13,13.3,0.6075,Moderada,0
FAZENDA UNIÃO,34010000,1,12100.0,34,ALTO PARNAÍBA,MARANHÃO,ANA,-9.29,-45.9019,2012-07-31,2019-07-31,8,12.5,2,75.0,0.455,Limitada,0
ALTO PARNAÍBA,34020000,1,12900.0,34,ALTO PARNAÍBA,MARANHÃO,ANA,-9.1131,-45.9261,1966-01-01,2019-09-30,54,0.0,53,1.9,0.93,Excelente,0
MEDONHO,34030000,1,2680.0,34,ALTO PARNAÍBA,MARANHÃO,ANA,-9.0083,-46.0058,1999-12-02,2019-09-30,21,6.6,15,28.6,0.6529,Moderada,0
FAZENDA PARACATI,34040000,1,25500.0,34,RIBEIRO GONÇALVES,PIAUÍ,ANA,-8.2808,-45.6667,1973-03-01,2004-12-31,32,0.0,31,3.1,0.7,Moderada,0
FAZENDA PARACATI II,34040500,1,25500.0,34,TASSO FRAGOSO,MARANHÃO,ANA,-8.2708,-45.6683,1996-11-28,2019-06-30,24,0.4,21,12.5,0.7276,Moderada,0
RIBEIRO GONÇALVES,34060000,1,31300.0,34,RIBEIRO GONÇALVES,PIAUÍ,ANA,-7.5667,-45.2544,1966-01-01,2019-08-31,54,0.5,52,3.7,0.927,Excelente,0
SÍTIO DO VELHO,34070000,1,35300.0,34,URUÇUÍ,PIAUÍ,ANA,-7.3808,-44.8267,1968-07-02,2019-06-30,52,22.2,37,28.8,0.7968,Excelente,0
FORMOSA DO URUÇUÍ PRETO,34080000,1,4820.0,34,BAIXA GRANDE DO RIB,PIAUÍ,ANA,-8.6722,-44.8853,2012-08-09,2019-06-30,8,4.5,4,50.0,0.503,Moderada,0
FAZENDA BANDEIRA,34090000,1,15600.0,34,URUÇUÍ,PIAUÍ,ANA,-7.3908,-44.6142,1973-02-13,2019-08-31,47,0.3,45,4.3,0.9282,Excelente,0
BALSAS,34130000,1,9040.0,34,BALSAS,MARANHÃO,ANA,-7.5344,-46.0358,1973-01-01,2019-06-30,47,0.0,46,2.1,0.93,Excelente,0
MARAVILHA BR-230,34140000,1,1870.0,34,BALSAS,MARANHÃO,ANA,-7.4742,-46.0219,1999-11-29,2019-09-30,21,8.0,15,28.6,0.6445,Moderada,0
BALSINHAS BR-324,34142000,1,1710.0,34,SAMBAÍBA,MARANHÃO,ANA,-7.5356,-45.8025,2002-12-17,2018-10-31,17,0.1,14,17.6,0.6319,Moderada,0
NEVES BR-230,34145000,1,2140.0,34,SÃO RAIMUNDO DAS MA,MARANHÃO,ANA,-7.0372,-45.5008,1999-12-10,2019-08-31,21,0.7,16,23.8,0.6883,Moderada,0
SAMBAÍBA,34160000,1,22200.0,34,SAMBAÍBA,MARANHÃO,ANA,-7.1489,-45.3489,2004-08-25,2019-07-31,16,0.0,13,18.8,0.63,Moderada,0
SÃO FÉLIX DE BALSAS,34170000,1,24700.0,34,SÃO FÉLIX DE BALSAS,MARANHÃO,ANA,-7.0819,-44.8139,1973-01-01,2019-08-31,47,0.2,46,2.1,0.9288,Excelente,0
CONTRATO,34230000,1,750.0,34,MONTE ALEGRE DO PIA,PIAUÍ,ANA,-9.58,-45.0292,1975-06-13,2019-08-31,45,12.2,34,24.4,0.8568,Excelente,0
REDENÇÃO DO GURGUÉIA,34233000,1,22700.0,34,REDENÇÃO DO GURGUÉI,PIAUÍ,ANA,-9.5397,-44.6014,2012-08-09,2019-06-30,8,5.6,5,37.5,0.4964,Limitada,0
PASSAGEM DAS PEDRAS,34243500,1,7200.0,34,CURIMATÁ,PIAUÍ,ANA,-9.9069,-44.495,2004-08-18,2019-07-31,16,0.6,11,31.2,0.6264,Moderada,0
CRISTINO CASTRO,34250000,1,31000.0,34,CRISTINO CASTRO,PIAUÍ,ANA,-8.8167,-44.2167,1963-06-26,1978-05-31,16,11.6,8,50.0,0.4304,Limitada,0
CRISTINO CASTRO II,34251000,1,31000.0,34,CRISTINO CASTRO,PIAUÍ,ANA,-8.7925,-44.2058,1975-03-25,2019-08-31,45,4.9,27,40.0,0.9006,Excelente,0
PONTE BR-324,34261000,1,40100.0,34,MANOEL EMÍDIO,PIAUÍ,ANA,-8.0975,-43.805,1999-11-27,2019-09-30,21,3.8,17,19.0,0.6697,Moderada,0
BARRA DO LANCE,34270000,1,47000.0,34,JERUMENHA,PIAUÍ,ANA,-7.2475,-43.6433,1973-01-01,2019-08-31,47,0.9,42,10.6,0.9246,Excelente,0
BARÃO DE GRAJAÚ,34311000,1,140000.0,34,BARÃO DE GRAJAÚ,MARANHÃO,ANA,-6.7614,-43.0278,1983-06-01,2019-07-31,37,0.9,32,13.5,0.8871,Excelente,0
PONTE DA ITAUEIRA,34340000,1,9910.0,34,FLORIANO,PIAUÍ,ANA,-6.8139,-42.9667,2004-08-12,2019-08-31,16,3.3,11,31.2,0.6102,Moderada,0
PEDRA REDONDA,34410000,1,4720.0,34,CONCEIÇÃO DO CANIND,PIAUÍ,ANA,-8.00556,-41.4978,1966-10-01,1999-11-18,34,33.8,15,55.9,0.5222,Moderada,0
FAZENDA TAPAGÉ,34420000,1,8810.0,34,SANTO INÁCIO DO PIA,PIAUÍ,ANA,-7.4681,-41.8653,1999-12-20,2019-09-30,21,5.6,14,33.3,0.6589,Moderada,0
MARIA PRETA,34450000,1,7180.0,34,JAICÓS,PIAUÍ,ANA,-7.5464,-41.295,1967-05-27,2019-09-30,53,54.8,7,86.8,0.63,Moderada,0
PICOS,34465000,1,6390.0,34,PICOS,PIAUÍ,ANA,-7.0728,-41.4536,1999-01-01,2019-09-30,21,10.2,15,28.6,0.6313,Moderada,0
SANTA CRUZ DO PIAUÍ,34470000,1,17700.0,34,SANTA CRUZ DO PIAUÍ,PIAUÍ,ANA,-7.18972,-41.7703,1973-01-01,1996-06-30,24,12.6,12,50.0,0.5244,Moderada,0
SANTA CRUZ DO PIAUÍ II,34471000,1,17700.0,34,SANTA CRUZ DO PIAUÍ,PIAUÍ,ANA,-7.1894,-41.7703,1996-08-01,2019-09-30,24,1.1,14,41.7,0.7234,Moderada,0
FAZENDA TALHADA II,34479000,1,28800.0,34,OEIRAS,PIAUÍ,ANA,-6.9861,-42.0883,2015-08-05,2019-09-30,5,20.0,2,60.0,0.3725,Limitada,0
FAZENDA TALHADA,34480000,1,29100.0,34,OEIRAS,PIAUÍ,ANA,-6.9731,-42.1061,1973-01-01,2014-11-18,42,15.3,23,45.2,0.7882,Excelente,0
SÃO RAIMUNDO NONATO,34563000,1,2990.0,34,SÃO RAIMUNDO NONATO,PIAUÍ,ANA,-9.0167,-42.6917,2004-11-01,2014-11-08,11,90.8,0,100.0,0.2175,Limitada,0
SÃO JOÃO DO PIAUÍ,34564000,1,15600.0,34,SÃO JOÃO DO PIAUÍ,PIAUÍ,ANA,-8.355,-42.2453,2002-12-12,2019-09-30,18,0.5,14,22.2,0.652,Moderada,0
SÃO FRANCISCO DO PIAUÍ,34571000,1,34400.0,34,SÃO FRANCISCO DO PI,PIAUÍ,ANA,-7.2342,-42.5439,1981-11-18,2019-09-30,39,4.5,25,35.9,0.8905,Excelente,0
NAZARÉ DO PIAUÍ,34580000,1,36900.0,34,NAZARÉ DO PIAUÍ,PIAUÍ,ANA,-6.98333,-42.6667,1965-02-16,1967-06-30,3,24.6,0,100.0,0.1899,Limitada,0
FRANCISCO AYRES,34600000,1,73700.0,34,FRANCISCO AYRES,PIAUÍ,ANA,-6.6222,-42.6969,1983-03-28,2019-09-30,37,7.6,21,43.2,0.8469,Excelente,0
OITEIRO,34610000,1,73800.0,34,FRANCISCO AYRES,PIAUÍ,ANA,-6.5833,-42.7,1973-01-01,1982-12-31,10,0.8,9,10.0,0.4202,Limitada,0
PASSAGEM FRANCA II,34620000,1,2950.0,34,PASSAGEM FRANCA DO,PIAUÍ,ANA,-5.8581,-42.4436,1999-10-19,2019-09-30,21,0.0,18,14.3,0.6925,Moderada,0
FAZENDA VENEZA,34660000,1,235000.0,34,PALMEIRAIS,PIAUÍ,ANA,-5.5719,-43.0242,1973-01-01,2019-08-31,47,0.2,45,4.3,0.9288,Excelente,0
TERESINA - CHESF,34690000,1,237000.0,34,TERESINA,PIAUÍ,ANA,-5.135,-42.8111,1981-03-01,2019-06-30,39,0.7,37,5.1,0.9133,Excelente,0
CROATÁ,34730000,1,1030.0,34,CROATÁ,CEARÁ,ANA,-4.4156,-40.9108,1962-02-17,2019-12-31,58,17.1,34,41.4,0.8274,Excelente,0
SAUDOSO,34740000,1,528.0,34,PORANGA,CEARÁ,ANA,-4.6197,-41.125,1996-11-21,2019-12-31,24,0.5,19,20.8,0.727,Moderada,0
OITICICA,34741000,1,10700.0,34,CRATEÚS,CEARÁ,ANA,-5.0297,-41.0831,2004-09-23,2014-09-30,11,5.3,4,63.6,0.4857,Limitada,0
BEBEDOURO,34742000,1,11400.0,34,BURITI DOS MONTES,PIAUÍ,ANA,-5.0586,-41.1567,2014-06-01,2019-12-31,6,1.8,4,33.3,0.4942,Limitada,0
FAZENDA BOA ESPERANÇA,34750000,1,19200.0,34,CASTELO DO PIAUÍ,PIAUÍ,ANA,-5.2231,-41.7375,1964-02-05,2019-08-31,56,0.9,49,12.5,0.9246,Excelente,0
SANTA CRUZ DOS MILAGRES,34751000,1,5100.0,34,SANTA CRUZ DOS MILA,PIAUÍ,ANA,-5.8003,-41.9594,2004-11-27,2019-09-30,16,0.5,13,18.8,0.627,Moderada,0
FAZENDA CARNAÍBA,34760000,1,16300.0,34,SÃO MIGUEL DO TAPUI,PIAUÍ,ANA,-5.7139,-42.1,1999-11-14,2019-09-30,21,2.3,17,19.0,0.6787,Moderada,0
PRATA DO PIAUÍ,34770000,1,43400.0,34,PRATA DO PIAUÍ,PIAUÍ,ANA,-5.6664,-42.2136,1973-01-01,2019-08-31,47,0.3,46,2.1,0.9282,Excelente,0
FAZENDA CANTINHO II,34789000,1,51400.0,34,TERESINA,PIAUÍ,ANA,-5.2025,-42.6967,1988-08-11,2019-09-30,32,0.1,27,15.6,0.8294,Excelente,0
FAZENDA CANTINHO,34790000,1,51400.0,34,TERESINA,PIAUÍ,ANA,-5.2,-42.7167,1963-07-28,1991-01-31,29,0.3,25,13.8,0.6607,Moderada,0
COELHO NETO,34820000,1,294000.0,34,COELHO NETO,MARANHÃO,ANA,-4.2881,-42.9856,1999-10-24,2019-09-30,21,3.9,17,19.0,0.6691,Moderada,0
LUZILÂNDIA,34879500,1,298000.0,34,LUZILÂNDIA,PIAUÍ,ANA,-3.4539,-42.37,1982-01-01,2019-08-31,38,0.4,37,2.6,0.9026,Excelente,0
PORTO FORMOSO,34880000,1,298000.0,34,SÃO BERNARDO,MARANHÃO,ANA,-3.4528,-42.3667,1963-08-01,1981-12-31,19,5.5,15,21.1,0.5045,Moderada,0
FAZENDA ALEGRIA,34930000,1,4910.0,34,BARRAS,PIAUÍ,ANA,-4.4097,-42.1814,1964-01-25,2019-06-30,56,25.1,29,48.2,0.7794,Excelente,0
PEDRA BRANCA,34933000,1,1760.0,34,BARRAS,PIAUÍ,ANA,-4.3931,-42.4072,2012-07-03,2019-09-30,8,11.8,4,50.0,0.4592,Limitada,0
PEDRINHAS,34936000,1,2900.0,34,BARRAS,PIAUÍ,ANA,-4.2378,-42.3053,2012-07-01,2019-09-30,8,13.1,2,75.0,0.4514,Limitada,0
ESPERANTINA,34940000,1,11200.0,34,ESPERANTINA,PIAUÍ,ANA,-3.9028,-42.2297,1973-01-01,2019-08-31,47,0.8,43,8.5,0.9252,Excelente,0
CONGOS,34948000,1,1450.0,34,BATALHA,PIAUÍ,ANA,-4.0283,-41.9122,2000-02-19,2019-09-30,20,15.2,2,90.0,0.5888,Moderada,0
PIRACURUCA,34976000,1,5190.0,34,PIRACURUCA,PIAUÍ,ANA,-3.9372,-41.7169,2000-02-17,2019-09-30,20,4.3,16,20.0,0.6542,Moderada,0
SANGRADOURO,34979000,1,1020.0,34,SÃO JOÃO DA FRONTEI,PIAUÍ,ANA,-4.0394,-41.2675,2014-12-17,2019-12-31,6,0.5,4,33.3,0.502,Moderada,0
TINGUIS,34980000,1,21800.0,34,SÃO JOSÉ DO DIVINO,PIAUÍ,ANA,-3.7239,-41.9742,1973-01-01,2019-09-30,47,0.4,43,8.5,0.9276,Excelente,0
SÃO BERNARDO,34988000,1,2030.0,34,SÃO BERNARDO,MARANHÃO,ANA,-3.36,-42.4197,1999-11-05,2018-12-31,20,0.0,19,5.0,0.67,Moderada,0
CHAVAL RETIRO,35050000,1,1000.0,35,CHAVAL,CEARÁ,ANA,-3.0786,-41.255,2000-02-24,2019-12-31,20,5.4,14,30.0,0.6476,Moderada,0
MORAÚJO,35125000,1,1500.0,35,MORAÚJO,CEARÁ,ANA,-3.4647,-40.6853,1979-03-01,2019-12-31,41,28.9,12,70.7,0.7566,Excelente,0
TAPERA,35156000,1,1000.0,35,URUOCA,CEARÁ,ANA,-3.3281,-40.8486,2004-10-23,2019-12-31,16,0.1,14,12.5,0.6294,Moderada,0
GRANJA,35170000,1,3960.0,35,GRANJA,CEARÁ,ANA,-3.1217,-40.8217,1971-01-01,2019-12-31,49,15.5,24,51.0,0.837,Excelente,0
PESQUEIRO,35205000,1,1460.0,35,CAMOCIM,CEARÁ,ANA,-3.0028,-40.5725,2000-02-21,2019-12-31,20,0.0,17,15.0,0.68,Moderada,0
FAZENDA  CAJAZEIRAS,35210000,1,1560.0,35,HIDROLÂNDIA,CEARÁ,ANA,-4.3775,-40.5492,1962-05-01,2019-12-31,58,48.8,14,75.9,0.6372,Moderada,0
FLORES,35223000,1,693.0,35,IPÚ,CEARÁ,ANA,-4.345,-40.5622,1999-10-28,2019-12-31,21,0.0,20,4.8,0.6925,Moderada,0
VÁRZEA DO GROSSO,35235000,1,3640.0,35,SANTA QUITÉRIA,CEARÁ,ANA,-4.1442,-40.43,1973-01-01,2019-12-31,47,2.2,43,8.5,0.9168,Excelente,0
TRAPIÁ,35240000,1,1530.0,35,SANTA QUITÉRIA,CEARÁ,ANA,-4.195,-40.3178,1973-01-15,2019-12-31,47,13.8,32,31.9,0.8472,Excelente,0
CURRAL VELHO,35251000,1,634.0,35,GROAIRAS,CEARÁ,ANA,-3.9975,-40.3703,2005-03-01,2018-11-30,14,18.8,7,50.0,0.4822,Limitada,0
SIARÃO,35255000,1,6880.0,35,GROAIRAS,CEARÁ,ANA,-3.9039,-40.4053,2013-03-16,2019-12-31,7,6.0,5,28.6,0.4815,Limitada,0
POÇO COMPRIDO,35257000,1,1270.0,35,SANTA QUITÉRIA,CEARÁ,ANA,-4.3667,-40.0186,2015-01-01,2019-12-31,5,0.0,5,0.0,0.4925,Limitada,0
FAZENDA PARANÁ,35258000,1,2370.0,35,SANTA QUITÉRIA,CEARÁ,ANA,-4.0969,-40.1264,1969-03-22,2019-12-31,51,37.8,27,47.1,0.7032,Moderada,0
GROAIRAS,35260000,1,2800.0,35,GROAIRAS,CEARÁ,ANA,-3.9092,-40.3797,1973-02-13,2019-12-31,47,2.1,39,17.0,0.9174,Excelente,0
ARARIUS,35263000,1,578.0,35,CARIRE,CEARÁ,ANA,-3.8919,-40.6025,1968-12-01,2019-12-31,52,29.0,33,36.5,0.756,Excelente,0
FAZENDA TIMBURANA,35270000,1,1230.0,35,SOBRAL,CEARÁ,ANA,-3.76667,-40.45,1968-02-22,1975-12-31,8,0.0,7,12.5,0.4,Limitada,0
SOBRAL,35275000,1,11300.0,35,SOBRAL,CEARÁ,ANA,-3.6883,-40.3389,1973-01-01,2019-12-31,47,7.9,34,27.7,0.8826,Excelente,0
FAZENDA BELA VISTA,35279000,1,46.0,35,FORQUILHA,CEARÁ,ANA,-3.82472,-40.1875,1984-02-01,2004-09-15,21,0.5,19,9.5,0.5595,Moderada,0
SANTANA DO ACARAÚ,35283000,1,13000.0,35,SANTANA DO ACARAÚ,CEARÁ,ANA,-3.4553,-40.2128,2006-07-12,2019-12-31,14,0.2,12,14.3,0.6038,Moderada,0
VILA NOVA,35301000,1,1280.0,35,ITAREMA,CEARÁ,ANA,-3.0247,-39.8706,2004-08-26,2019-12-31,16,0.4,14,12.5,0.6276,Moderada,0
FAZENDA POÇO VERDE,35350000,1,1390.0,35,SOBRAL,CEARÁ,ANA,-3.7481,-40.0358,2000-01-01,2019-12-31,20,1.2,19,5.0,0.6728,Moderada,0
AMONTADA,35370000,1,2680.0,35,AMONTADA,CEARÁ,ANA,-3.3642,-39.8339,1973-02-11,2019-12-31,47,59.1,3,93.6,0.63,Moderada,0
BETÂNIA,35370600,1,951.0,35,ITAPIPOCA,CEARÁ,ANA,-3.2844,-39.6528,2004-08-28,2019-12-31,16,9.2,9,43.8,0.5748,Moderada,0
BARRENTO,35390000,1,564.0,35,ITAPIPOCA,CEARÁ,ANA,-3.3042,-39.51,2004-09-01,2019-12-31,16,7.9,10,37.5,0.5826,Moderada,0
PARAMOTI,35551000,1,1540.0,35,PARAMOTI,CEARÁ,ANA,-4.1008,-39.2339,2006-04-01,2019-12-31,14,34.6,2,85.7,0.3974,Limitada,0
SÃO LUÍS DO CURU,35570000,1,7330.0,35,SÃO LUÍS DO CURU,CEARÁ,ANA,-3.4075,-39.0847,1973-01-01,2019-12-31,47,1.4,40,14.9,0.9216,Excelente,0
MELANCIA,35571000,1,7650.0,35,SÃO GONÇALO DO AMAR,CEARÁ,ANA,-3.6144,-39.2228,2005-06-01,2015-10-14,11,9.7,6,45.5,0.4693,Limitada,0
SÂO VICENTE (PONTE BR-020),35640000,1,178.0,35,MARANGUAPE,CEARÁ,ANA,-3.9983,-38.9417,2005-03-30,2019-12-31,15,39.8,5,66.7,0.3787,Limitada,0
SÍTIOS NOVOS,35650000,1,469.0,35,SÃO GONÇALO DO AMAR,CEARÁ,ANA,-3.74972,-38.955,1973-02-11,1998-12-31,26,26.7,11,57.7,0.4648,Limitada,0
UMARITUBA NOVA,35668000,1,504.0,35,SÃO GONÇALO DO AMAR,CEARÁ,ANA,-3.6706,-38.9825,1984-03-01,2019-12-31,36,19.0,20,44.4,0.766,Excelente,0
CAMPO GRANDE,35669100,1,425.0,35,CAUCAIA,CEARÁ,ANA,-3.7619,-38.6844,2004-10-17,2019-12-31,16,1.4,11,31.2,0.6216,Moderada,0
BARRA NOVA,35740000,1,223.0,35,REDENÇÃO,CEARÁ,ANA,-4.1933,-38.7797,1984-04-01,2019-12-31,36,0.3,33,8.3,0.8782,Excelente,0
CAIO PRADO,35830000,1,1610.0,35,ITAPIUNA,CEARÁ,ANA,-4.6578,-38.9433,1984-05-01,2019-12-31,36,2.0,31,13.9,0.868,Excelente,0
ARRAIAL,35871000,1,470.0,35,ARACOIABA,CEARÁ,ANA,-4.3783,-38.8075,2004-08-20,2019-12-31,16,8.7,9,43.8,0.5778,Moderada,0
IDEAL,35875500,1,2940.0,35,ARACOIABA,CEARÁ,ANA,-4.4253,-38.6778,2004-09-22,2019-12-31,16,9.3,12,25.0,0.5742,Moderada,0
CHOROZINHO,35880000,1,4100.0,35,CHOROZINHO,CEARÁ,ANA,-4.3,-38.4833,1969-05-03,1994-05-20,26,3.3,22,15.4,0.6052,Moderada,0
ITAPEIM,35900000,1,3100.0,35,BEBERIBE,CEARÁ,ANA,-4.3531,-38.1178,2000-02-01,2019-12-31,20,7.9,15,25.0,0.6326,Moderada,0
CRISTAIS,35950000,1,2040.0,35,CASCAVEL,CEARÁ,ANA,-4.5006,-38.3608,1969-05-03,2019-12-31,51,11.9,35,31.4,0.8586,Excelente,0
ARNEIROZ,36020000,1,5870.0,36,ARNEIROZ,CEARÁ,ANA,-6.3244,-40.1617,1973-01-01,2019-12-31,47,2.2,44,6.4,0.9168,Excelente,0
MALHADA,36045000,1,3460.0,36,SABOEIRO,CEARÁ,ANA,-6.6461,-39.9617,1979-02-20,2019-12-31,41,8.3,35,14.6,0.8802,Excelente,0
SÍTIO PATOS,36070000,1,13700.0,36,JUCÁS,CEARÁ,ANA,-6.5206,-39.6386,2000-01-23,2019-12-31,20,0.0,19,5.0,0.68,Moderada,0
SÍTIO CONCEIÇÃO,36110000,1,2430.0,36,CARIÚS,CEARÁ,ANA,-6.56667,-39.5,1967-01-01,1982-04-20,16,3.1,13,18.8,0.4814,Limitada,0
SÍTIO POÇO DANTAS,36125000,1,3530.0,36,CARIÚS,CEARÁ,ANA,-6.5578,-39.5086,1973-01-10,2019-12-31,47,2.7,39,17.0,0.9138,Excelente,0
CARIÚS,36130000,1,6000.0,36,CARIÚS,CEARÁ,ANA,-6.5344,-39.4997,1963-10-01,2019-12-31,57,29.1,31,45.6,0.7554,Excelente,0
IGUATU,36160000,1,20700.0,36,IGUATU,CEARÁ,ANA,-6.3744,-39.2933,1973-01-10,2019-12-31,47,2.4,42,10.6,0.9156,Excelente,0
SÍTIO LAPINHA,36210000,1,1260.0,36,MISSÃO VELHA,CEARÁ,ANA,-7.2222,-39.1439,1965-01-01,2019-12-31,55,13.1,43,21.8,0.8514,Excelente,0
JATI,36220000,1,1570.0,36,JATI,CEARÁ,ANA,-7.6858,-39.0086,1999-09-27,2019-12-31,21,3.3,19,9.5,0.6727,Moderada,0
SÍTIO OITIS,36230000,1,2070.0,36,BREJO SANTO,CEARÁ,ANA,-7.61667,-38.8833,1967-01-20,1974-01-31,8,0.0,6,25.0,0.4,Limitada,0
PODIMIRIM,36250000,1,4230.0,36,MILAGRES,CEARÁ,ANA,-7.3,-38.9847,1973-01-01,2019-12-31,47,0.0,47,0.0,0.93,Excelente,0
SÍTIO SANTA CRUZ,36260000,1,6940.0,36,AURORA,CEARÁ,ANA,-7.0142,-38.9581,2000-01-25,2019-12-31,20,0.4,18,10.0,0.6776,Moderada,0
LAVRAS DA MANGABEIRA,36270000,1,8840.0,36,LAVRAS DA MANGABEIR,CEARÁ,ANA,-6.75,-38.9667,1973-01-01,2019-12-31,47,29.7,30,36.2,0.7518,Excelente,0
ICÓ,36290000,1,12400.0,36,ICÓ,CEARÁ,ANA,-6.4067,-38.8672,1973-01-01,2019-12-31,47,0.5,44,6.4,0.927,Excelente,0
JAGUARIBE,36320000,1,39600.0,36,JAGUARIBE,CEARÁ,ANA,-5.8997,-38.6331,1977-10-26,2019-12-31,43,0.4,41,4.7,0.9276,Excelente,0
CASTANHÃO,36370000,1,45000.0,36,,CEARÁ,ANA,-5.45,-38.4167,1961-07-25,1977-06-26,17,19.1,7,58.8,0.3979,Limitada,0
ALTO SANTO,36386000,1,2150.0,36,ALTO SANTO,CEARÁ,ANA,-5.4919,-38.2739,2000-01-01,2019-12-31,20,30.4,10,50.0,0.4976,Limitada,0
PEIXE GORDO,36390000,1,47800.0,36,TABULEIRO DO NORTE,CEARÁ,ANA,-5.2275,-38.1978,1973-01-01,2019-12-31,47,0.8,41,12.8,0.9252,Excelente,0
SENADOR POMPEU,36470000,1,4530.0,36,SENADOR POMPEU,CEARÁ,ANA,-5.5958,-39.3811,1973-02-26,2019-12-31,47,12.2,32,31.9,0.8568,Excelente,0
PASSAGEM POÇO DA PEDRA,36515000,1,5250.0,36,QUIXERAMOBIM,CEARÁ,ANA,-5.3911,-39.2178,2005-12-11,2019-12-31,15,1.1,11,26.7,0.6109,Moderada,0
JUAZEIRO,36517500,1,1170.0,36,BOA VIAGEM,CEARÁ,ANA,-5.0456,-39.6883,2005-03-01,2018-11-30,14,29.0,5,64.3,0.421,Limitada,0
QUIXERAMOBIM,36520000,1,7050.0,36,QUIXERAMOBIM,CEARÁ,ANA,-5.2014,-39.2922,1973-01-01,2019-12-31,47,7.5,36,23.4,0.885,Excelente,0
MORADA NOVA II,36580000,1,17300.0,36,MORADA NOVA,CEARÁ,ANA,-5.1219,-38.4464,1973-03-23,2019-12-31,47,1.4,41,12.8,0.9216,Excelente,0
MELÕES,36586000,1,1360.0,36,MORADA NOVA,CEARÁ,ANA,-5.2142,-38.2811,2004-11-11,2019-12-31,16,1.6,13,18.8,0.6204,Moderada,0
QUIXERÉ,36615000,1,48900.0,36,QUIXERÉ,CEARÁ,ANA,-5.0839,-37.9983,2005-09-16,2017-09-05,13,0.2,11,15.4,0.5713,Moderada,0
PASSAGEM RUSSAS,36628000,1,71000.0,36,RUSSAS,CEARÁ,ANA,-4.9344,-37.8878,2013-04-10,2019-12-31,7,3.1,4,42.9,0.4989,Limitada,0
SÍTIO ÁGUA FRIA,36630000,1,207.0,36,MORADA NOVA,CEARÁ,ANA,-4.8711,-38.3967,2000-08-01,2019-12-31,20,5.2,16,20.0,0.6488,Moderada,0
PAU DOS FERROS - MONTANTE,37027000,1,926.0,37,MARCELINO VIEIRA,RIO GRANDE DO NORTE,ANA,-6.2103,-38.1661,2018-07-26,2019-01-23,2,17.0,0,100.0,0.353,Limitada,0
PAU DOS FERROS,37030000,1,2200.0,37,PAU DOS FERROS,RIO GRANDE DO NORTE,ANA,-6.1114,-38.2008,1973-01-01,2019-11-30,47,35.6,14,70.2,0.7164,Moderada,0
FAZENDA POÇO VERDE,37050000,1,3390.0,37,TABOLEIRO GRANDE,RIO GRANDE DO NORTE,ANA,-5.9167,-38.0167,2000-01-01,2019-09-30,20,43.6,3,85.0,0.4184,Limitada,0
PEDRA DE ABELHAS,37080000,1,5930.0,37,FELIPE GUERRA,RIO GRANDE DO NORTE,ANA,-5.5933,-37.6842,1911-01-01,2019-11-30,109,49.5,25,77.1,0.633,Moderada,0
GOVERNADOR DIX-SEPT ROSADO,37084000,1,7690.0,37,GOVERNADOR DIX-SEPT,RIO GRANDE DO NORTE,ANA,-5.45,-37.515,1986-09-25,2019-11-30,34,9.9,22,35.3,0.7956,Excelente,0
MOSSORÓ,37090000,1,9830.0,37,MOSSORÓ,RIO GRANDE DO NORTE,ANA,-5.2194,-37.3622,1989-07-04,2018-06-30,30,65.0,4,86.7,0.495,Limitada,0
AUGUSTO SEVERO,37150000,1,1140.0,37,AUGUSTO SEVERO,RIO GRANDE DO NORTE,ANA,-5.8672,-37.3147,1986-11-01,2019-10-31,34,17.3,21,38.2,0.7512,Excelente,0
UPANEMA,37185000,1,1590.0,37,UPANEMA,RIO GRANDE DO NORTE,ANA,-5.6436,-37.2553,1975-01-01,2019-11-30,45,29.6,21,53.3,0.7524,Excelente,0
FAZENDA ANGICOS,37190000,1,3050.0,37,MOSSORÓ,RIO GRANDE DO NORTE,ANA,-5.2886,-37.2889,1986-10-01,2018-12-31,33,46.6,9,72.7,0.5529,Moderada,0
VÁRZEA GRANDE,37220000,1,1110.0,37,SÃO JOÃO DO RIO DO,PARAÍBA,ANA,-6.9192,-38.3808,1962-05-02,2019-11-30,58,20.2,33,43.1,0.8088,Excelente,0
ANTENOR NAVARRO,37260000,1,1450.0,37,SÃO JOÃO DO RIO DO,PARAÍBA,ANA,-6.7353,-38.4481,1964-01-01,2019-12-31,56,64.2,8,85.7,0.63,Moderada,0
APARECIDA,37290000,1,3420.0,37,SOUSA,PARAÍBA,ANA,-6.7853,-38.0869,1983-01-14,2019-12-31,37,19.9,9,75.7,0.7731,Excelente,0
SÃO DOMINGOS DO POMBAL,37297000,1,5400.0,37,POMBAL,PARAÍBA,ANA,-6.8022,-37.9347,2000-01-26,2019-12-31,20,16.3,6,70.0,0.5822,Moderada,0
POMBINHO,37320000,1,1920.0,37,DIAMANTE,PARAÍBA,ANA,-7.4364,-38.3189,2002-12-16,2019-12-31,18,9.4,11,38.9,0.5986,Moderada,0
PIANCÓ,37340000,1,4560.0,37,PIANCÓ,PARAÍBA,ANA,-7.2044,-37.9281,1969-05-01,2019-10-31,51,12.5,28,45.1,0.855,Excelente,0
FAZENDA MALHADA DO BOI,37350000,1,1230.0,37,OLHO D'ÁGUA,PARAÍBA,ANA,-7.2181,-37.7519,2018-07-27,2018-10-18,1,0.0,0,100.0,0.4325,Limitada,0
EMAS,37360000,1,594.0,37,EMAS,PARAÍBA,ANA,-7.1106,-37.7108,1963-11-29,2019-10-04,57,51.1,12,78.9,0.63,Moderada,0
AÇUDE COREMAS JUSANTE,37369100,1,7620.0,37,COREMAS,PARAÍBA,ANA,-7.0217,-37.9486,2013-06-14,2019-10-31,7,5.1,4,42.9,0.4869,Limitada,0
PAU FERRADO,37380000,1,8580.0,37,POMBAL,PARAÍBA,ANA,-6.9658,-37.9242,1969-04-28,2019-12-31,51,4.1,42,17.6,0.9054,Excelente,0
SÍTIO VASSOURAS,37410000,1,15200.0,37,POMBAL,PARAÍBA,ANA,-6.7258,-37.7975,1973-01-01,2019-12-31,47,0.2,46,2.1,0.9288,Excelente,0
SÍTIO CURRALINHO,37412000,1,17200.0,37,PAULISTA,PARAÍBA,ANA,-6.5803,-37.6058,2004-08-01,2019-12-31,16,0.0,15,6.2,0.63,Moderada,0
DIVISA PB-RN,37413000,1,18100.0,37,JARDIM DE PIRANHAS,RIO GRANDE DO NORTE,ANA,-6.44,-37.3894,2007-08-01,2019-11-30,13,1.0,7,46.2,0.5865,Moderada,0
PATOS,37430000,1,1650.0,37,PATOS,PARAÍBA,ANA,-7.0228,-37.27,1971-01-26,2019-12-31,49,60.8,8,83.7,0.63,Moderada,0
SERRA NEGRA DO NORTE,37440000,1,2940.0,37,SERRA NEGRA DO NORT,RIO GRANDE DO NORTE,ANA,-6.6656,-37.4014,1928-03-03,2019-11-30,92,70.3,5,94.6,0.63,Moderada,0
JARDIM DE PIRANHAS,37470000,1,21600.0,37,JARDIM DE PIRANHAS,RIO GRANDE DO NORTE,ANA,-6.3781,-37.3525,1973-01-01,2019-11-30,47,1.5,42,10.6,0.921,Excelente,0
FAZENDA ESPERAS - MONTANTE,37490000,1,896.0,37,BREJO DO CRUZ,PARAÍBA,ANA,-6.1733,-37.3308,1984-04-17,2014-12-31,31,26.6,17,45.2,0.6079,Moderada,0
SÍTIO VOLTA,37515000,1,1860.0,37,JARDIM DO SERIDÓ,RIO GRANDE DO NORTE,ANA,-6.5936,-36.785,1979-02-12,2019-11-30,41,9.4,28,31.7,0.8736,Excelente,0
ACARI,37526000,1,2140.0,37,ACARI,RIO GRANDE DO NORTE,ANA,-6.4333,-36.6333,2000-01-01,2019-11-30,20,42.3,7,65.0,0.4262,Limitada,0
CAICÓ,37559000,1,6310.0,37,CAICÓ,RIO GRANDE DO NORTE,ANA,-6.4511,-37.0906,1986-09-15,2019-12-31,34,44.6,10,70.6,0.5874,Moderada,0
SÃO FERNANDO,37570000,1,9710.0,37,SÃO FERNANDO,RIO GRANDE DO NORTE,ANA,-6.3703,-37.1803,1973-01-01,2019-10-31,47,26.3,15,68.1,0.7722,Excelente,0
OITICICA II,37580000,1,33800.0,37,JUCURUTU,RIO GRANDE DO NORTE,ANA,-6.1817,-37.1417,2004-08-01,2017-02-17,14,7.1,8,42.9,0.5424,Moderada,0
JUCURUTU,37604000,1,34300.0,37,JUCURUTU,RIO GRANDE DO NORTE,ANA,-6.0342,-37.0156,2009-10-27,2019-11-30,11,13.6,3,72.7,0.4859,Limitada,0
AÇUDE ARMANDO RIBEIRO GONÇALVES JUSANTE,37610500,1,38600.0,37,AÇU,RIO GRANDE DO NORTE,ANA,-5.6625,-36.8819,2014-05-28,2019-10-31,6,6.5,3,50.0,0.466,Limitada,0
SÍTIO ACAUA,37710100,1,38100.0,37,AÇU,RIO GRANDE DO NORTE,ANA,-5.61667,-36.8833,1973-01-01,1979-12-31,7,3.1,5,28.6,0.3689,Limitada,0
SÍTIO ACAUÃ II,37710150,1,38100.0,37,AÇU,RIO GRANDE DO NORTE,ANA,-5.6164,-36.8911,1983-04-09,2019-11-30,37,7.7,28,24.3,0.8463,Excelente,0
MENDUBIM DE BAIXO,37711000,1,969.0,37,AÇU,RIO GRANDE DO NORTE,ANA,-5.6319,-36.9161,1986-09-19,2019-11-30,34,7.8,26,23.5,0.8082,Excelente,0
FAZENDA SÃO SEBASTIÃO,37718000,1,1100.0,37,AFONSO BEZERRA,RIO GRANDE DO NORTE,ANA,-5.4242,-36.5303,2018-07-31,2019-08-05,2,50.9,0,100.0,0.155,Limitada,0
DIBA - SÍTIO CANTO ALEGRE,37730000,1,40100.0,37,AFONSO BEZERRA,RIO GRANDE DO NORTE,ANA,-5.4133,-36.8444,2004-08-01,2019-12-31,16,3.2,11,31.2,0.6108,Moderada,0
ALTO RODRIGUES,37750000,1,40300.0,37,ALTO DO RODRIGUES,RIO GRANDE DO NORTE,ANA,-5.2897,-36.7653,1989-07-16,2019-11-30,31,73.3,4,87.1,0.5175,Moderada,0
PENDÊNCIAS,37761000,1,40800.0,37,PENDÊNCIAS,RIO GRANDE DO NORTE,ANA,-5.2572,-36.7233,1986-09-18,2019-01-31,34,12.3,20,41.2,0.7812,Excelente,0
DOM MARCOLINO,38129000,1,692.0,38,CEARÁ-MIRIM,RIO GRANDE DO NORTE,ANA,-5.4667,-35.3875,1999-11-04,2019-11-30,21,1.3,17,19.0,0.6847,Moderada,0
SÍTIO BOA ESPERANÇA,38138000,1,710.0,38,JARDIM DE ANGICOS,RIO GRANDE DO NORTE,ANA,-5.6564,-35.9758,2018-06-01,2019-10-31,2,17.2,0,100.0,0.3518,Limitada,0
CEARÁ-MIRIM,38170000,1,2400.0,38,CEARÁ-MIRIM,RIO GRANDE DO NORTE,ANA,-5.63,-35.4214,1969-06-26,2019-10-31,51,0.7,47,7.8,0.9258,Excelente,0
BARCELONA,38340000,1,1290.0,38,BARCELONA,RIO GRANDE DO NORTE,ANA,-5.9525,-35.9261,2005-03-01,2019-10-31,15,56.8,3,80.0,0.3175,Limitada,0
TELHA,38380000,1,2440.0,38,SÃO PAULO DO POTENG,RIO GRANDE DO NORTE,ANA,-5.8669,-35.5942,1972-09-01,2019-11-30,48,63.3,1,97.9,0.63,Moderada,0
POTENGI,38385000,1,2550.0,38,IELMO MARINHO,RIO GRANDE DO NORTE,ANA,-5.8333,-35.5333,1972-01-19,1972-08-31,1,0.0,0,100.0,0.3125,Limitada,0
IGREJA NOVA,38390000,1,3120.0,38,SÃO GONÇALO DO AMAR,RIO GRANDE DO NORTE,ANA,-5.81667,-35.45,1969-06-29,1971-12-31,3,0.0,2,33.3,0.3375,Limitada,0
SANTA CRUZ,38440000,1,331.0,38,SANTA CRUZ,RIO GRANDE DO NORTE,ANA,-6.2428,-35.9947,1921-05-31,2018-10-31,98,96.0,0,100.0,0.62,Moderada,0
FAZENDA DIVISÃO,38460000,1,1750.0,38,TANGARÁ,RIO GRANDE DO NORTE,ANA,-6.1994,-35.7694,2017-04-01,2019-10-31,3,6.6,0,100.0,0.4279,Limitada,0
FAZENDA PAJUSSARA II,38470000,1,32.0,38,MONTE ALEGRE,RIO GRANDE DO NORTE,ANA,-6.135,-35.4311,2018-09-04,2019-11-30,2,44.8,0,100.0,0.1862,Limitada,0
MONTE ALEGRE,38485000,1,2560.0,38,MONTE ALEGRE,RIO GRANDE DO NORTE,ANA,-6.0631,-35.3119,1977-07-13,2019-09-30,43,4.5,30,30.2,0.903,Excelente,0
SÃO JOSÉ DO MIPIBU,38490000,1,2610.0,38,SÃO JOSÉ DE MIPIBU,RIO GRANDE DO NORTE,ANA,-6.1069,-35.2519,1969-12-06,1974-04-30,6,0.0,4,33.3,0.375,Limitada,0
SÃO JOSÉ DO CAMPESTRE,38500000,1,1340.0,38,SÃO JOSÉ DO CAMPEST,RIO GRANDE DO NORTE,ANA,-6.3372,-35.6847,1983-01-12,2019-10-31,37,56.8,2,94.6,0.5925,Moderada,0
SÍTIO CHOAR,38580000,1,2030.0,38,VÁRZEA,RIO GRANDE DO NORTE,ANA,-6.3172,-35.3367,2000-01-01,2019-11-30,20,39.3,3,85.0,0.4442,Limitada,0
GOIANINHA,38590000,1,2600.0,38,GOIANINHA,RIO GRANDE DO NORTE,ANA,-6.2439,-35.2172,1969-12-29,1972-01-15,4,0.0,2,50.0,0.35,Limitada,0
AÇUDE ALGODÃO DE JANDAIRA,38596000,1,109.0,38,ALGODÃO DE JANDAÍRA,PARAÍBA,ANA,-6.905,-36.0033,2018-09-01,2018-09-01,1,0.0,0,100.0,0.4325,Limitada,0
FAZENDA ALAGAMAR,38650000,1,2170.0,38,BANANEIRAS,PARAÍBA,ANA,-6.6053,-35.5289,1979-03-01,2019-12-31,41,11.3,26,36.6,0.8622,Excelente,0
PEDRO VELHO,38680000,1,3450.0,38,PEDRO VELHO,RIO GRANDE DO NORTE,ANA,-6.445,-35.2206,1975-01-01,2019-12-31,45,34.5,4,91.1,0.723,Moderada,0
FAZENDA ALMAS,38690000,1,52.0,38,BAÍA FORMOSA,RIO GRANDE DO NORTE,ANA,-6.5056,-35.1064,2007-12-12,2019-11-30,13,0.9,9,30.8,0.5871,Moderada,0
MULUNGU,38750000,1,875.0,38,MULUNGU,PARAÍBA,ANA,-7.0297,-35.4681,1973-01-05,2019-11-30,47,11.5,25,46.8,0.861,Excelente,0
SÍTIO PASSAGEM,38771000,1,908.0,38,GUARABIRA,PARAÍBA,ANA,-6.8583,-35.4017,2000-01-01,2019-11-30,20,4.6,14,30.0,0.6524,Moderada,0
PONTE DO LEITÃO,38790000,1,2950.0,38,MAMANGUAPE,PARAÍBA,ANA,-6.8519,-35.1631,1969-12-16,2019-11-30,51,1.6,45,11.8,0.9204,Excelente,0
PONTE DO LEITÃO - JUSANTE,38792000,1,2990.0,38,MONTEIRO,PARAÍBA,ANA,-6.85,-35.1167,1969-12-26,1970-09-30,2,0.0,0,100.0,0.325,Limitada,0
CAMALAÚ - MONTANTE,38800500,1,1500.0,38,CAMALAÚ,PARAÍBA,ANA,-7.8908,-36.7583,2017-03-01,2019-12-31,3,0.4,1,66.7,0.4651,Limitada,0
SÍTIO CONCEIÇÃO,38812000,1,1240.0,38,SUMÉ,PARAÍBA,ANA,-7.7872,-36.7342,2015-04-07,2019-12-31,5,40.3,2,60.0,0.2507,Limitada,0
CARAÚBAS,38830000,1,5030.0,38,CARAÚBAS,PARAÍBA,ANA,-7.7211,-36.5053,1970-03-01,2019-10-29,50,11.2,32,36.0,0.8628,Excelente,0
POÇO DE PEDRAS,38850000,1,3180.0,38,SÃO JOÃO DO CARIRI,PARAÍBA,ANA,-7.3981,-36.4336,1970-01-01,2019-11-30,50,12.7,25,50.0,0.8538,Excelente,0
BODOCONGO,38860000,1,13700.0,38,BOQUEIRÃO,PARAÍBA,ANA,-7.5283,-35.9997,1969-12-18,2019-11-30,51,4.1,42,17.6,0.9054,Excelente,0
BARRA DE JOÃO LEITE,38865000,1,235.0,38,AROEIRAS,PARAÍBA,ANA,-7.4597,-35.825,2018-06-26,2019-12-31,2,16.6,0,100.0,0.3554,Limitada,0
GUARITA,38880000,1,17400.0,38,ITABAIANA,PARAÍBA,ANA,-7.3344,-35.3728,1970-01-06,2019-01-31,50,3.1,41,18.0,0.9114,Excelente,0
SOBRADO,38887000,1,728.0,38,SAPÉ,PARAÍBA,ANA,-7.15,-35.2331,2000-01-01,2019-12-31,20,11.5,8,60.0,0.611,Moderada,0
ENGENHO SANTANA,38888000,1,18900.0,38,CRUZ DO ESPÍRITO SA,PARAÍBA,ANA,-7.1728,-35.1475,2002-12-19,2019-10-20,18,4.0,14,22.2,0.631,Moderada,0
PONTE DA BATALHA,38895000,1,19000.0,38,SANTA TERESINHA,PARAÍBA,ANA,-7.13,-35.0475,1969-12-21,2019-12-31,51,2.5,43,15.7,0.915,Excelente,0
ENGENHO ITAPISSIRICA,39080000,1,1230.0,39,GOIANA,PERNAMBUCO,ANA,-7.6131,-35.0647,2016-01-01,2017-02-28,2,0.0,1,50.0,0.435,Limitada,0
TIMBAÚBA,39081250,1,276.0,39,TIMBAÚBA,PERNAMBUCO,ANA,-7.5128,-35.3269,2014-02-01,2019-11-30,6,5.4,0,100.0,0.4726,Limitada,0
ENGENHO VOLTA,39082000,1,329.0,39,TIMBAÚBA,PERNAMBUCO,ANA,-7.5219,-35.2883,2002-12-21,2019-12-31,18,2.0,13,27.8,0.643,Moderada,0
VICÊNCIA,39082800,1,192.0,39,VICÊNCIA,PERNAMBUCO,ANA,-7.6506,-35.3206,2012-10-19,2019-12-31,8,2.2,5,37.5,0.5168,Moderada,0
ENGENHO RETIRO,39083000,1,472.0,39,CONDADO,PERNAMBUCO,ANA,-7.5578,-35.1175,1977-10-20,2019-12-31,43,4.2,28,34.9,0.9048,Excelente,0
CARICÉ,39084000,1,1320.0,39,ITAMBÉ (EX-TAMBÉ),PERNAMBUCO,ANA,-7.5428,-35.0686,1999-11-01,2019-10-31,21,2.7,14,33.3,0.6763,Moderada,0
NAZARÉ DA MATA,39084010,1,692.0,39,NAZARÉ DA MATA,PERNAMBUCO,ANA,-7.7542,-35.2331,1973-01-01,2019-12-31,47,2.8,40,14.9,0.9132,Excelente,0
ENGENHO ITAPISSIRICA,39084020,1,1230.0,39,GOIANA,PERNAMBUCO,ANA,-7.6131,-35.0647,1967-05-01,2019-12-31,53,9.0,40,24.5,0.876,Excelente,0
ENGENHO ITAPIREMA DE BAIXO,39084200,1,198.0,39,GOIANA,PERNAMBUCO,ANA,-7.6833,-34.8833,2004-08-07,2018-07-31,15,2.1,10,33.3,0.5949,Moderada,0
SANTA CRUZ DO CAPIBARIBE,39100000,1,1560.0,39,SANTA CRUZ DO CAPIB,PERNAMBUCO,ANA,-7.9619,-36.2022,1986-04-26,2019-12-31,34,13.5,21,38.2,0.774,Excelente,0
TORITAMA,39130000,1,2450.0,39,TORITAMA,PERNAMBUCO,ANA,-8.0128,-36.0578,1973-01-01,2019-12-31,47,11.8,30,36.2,0.8592,Excelente,0
SALGADINHO,39140000,1,4910.0,39,SALGADINHO,PERNAMBUCO,ANA,-7.9428,-35.6342,1962-01-01,2019-12-31,58,21.9,34,41.4,0.7986,Excelente,0
LIMOEIRO,39145000,1,5580.0,39,LIMOEIRO,PERNAMBUCO,ANA,-7.8789,-35.4519,1973-02-01,2019-12-31,47,3.2,39,17.0,0.9108,Excelente,0
PAUDALHO,39150000,1,6190.0,39,PAUDALHO,PERNAMBUCO,ANA,-7.8942,-35.1733,1966-08-11,2019-12-31,54,13.6,37,31.5,0.8484,Excelente,0
ENGENHO CANAVIEIRA,39154000,1,311.0,39,PAUDALHO,PERNAMBUCO,ANA,-7.9719,-35.2067,1999-11-04,2019-11-30,21,6.1,15,28.6,0.6559,Moderada,0
ENGENHO SÍTIO,39155000,1,376.0,39,SÃO LOURENÇO DA MAT,PERNAMBUCO,ANA,-7.9697,-35.1594,1967-04-09,1999-10-31,33,27.5,17,48.5,0.5475,Moderada,0
VITÓRIA DE SANTO ANTÃO,39170000,1,264.0,39,VITÓRIA DE SANTO AN,PERNAMBUCO,ANA,-8.1136,-35.2839,1967-04-08,2019-12-31,53,19.2,37,30.2,0.8148,Excelente,0
